[
  {
    "id": 1,
    "PooledFundName": "Afghanistan",
    "PooledFundNameAbbrv": "Afghanistan",
    "RegionName": "Southern Asia",
    "RegionNameArr": "Asia",
    "SubRegionName": "Southern Asia",
    "ContinentName": "Asia",
    "CountryCode": "AFG",
    "ISO2Code": "AF",
    "latitude": 33.93911,
    "longitude": 67.709953,
    "CBPFFundStatus":"",
    "CBPFId": 23,
    "CERFId": 8,
    "AreaType": "Country"
  },
  {
    "id": 2,
    "PooledFundName": "Algeria",
    "PooledFundNameAbbrv": "Algeria",
    "RegionName": "Northern africa",
    "RegionNameArr": "Africa",
    "SubRegionName": "Northern africa",
    "ContinentName": "Africa",
    "CountryCode": "DZA",
    "ISO2Code": "DZ",
    "latitude": 28.033886,
    "longitude": 1.659626,
    "CBPFFundStatus":"",
    "CBPFId": "",
    "CERFId": 9,
    "AreaType": "Country"
  },
  {
    "id": 3,
    "PooledFundName": "Angola",
    "PooledFundNameAbbrv": "Angola",
    "RegionName": "Middle Africa",
    "RegionNameArr": "Africa",
    "SubRegionName": "Middle Africa",
    "ContinentName": "Africa",
    "CountryCode": "AGO",
    "ISO2Code": "AO",
    "latitude": -11.202692,
    "longitude": 17.873887,
    "CBPFFundStatus":"Closed",
    "CBPFId": 91,
    "CERFId": 10,
    "AreaType": "Country"
  },
  {
    "id": 4,
    "PooledFundName": "Antigua and Barbuda",
    "PooledFundNameAbbrv": "Antigua and Barbuda",
    "RegionName": "Latin America",
    "RegionNameArr": "Latin America",
    "SubRegionName": "Caribbean",
    "ContinentName": "Americas",
    "CountryCode": "ATG",
    "ISO2Code": "AG",
    "latitude": 17.060816,
    "longitude": -61.796428,
    "CBPFFundStatus":"",
    "CBPFId": "",
    "CERFId": 112,
    "AreaType": "Country"
  },
  {
    "id": 5,
    "PooledFundName": "Armenia",
    "PooledFundNameAbbrv": "Armenia",
    "RegionName": "Western Asia",
    "RegionNameArr": "Middle East",
    "SubRegionName": "Western Asia",
    "ContinentName": "Asia",
    "CountryCode": "ARM",
    "ISO2Code": "AM",
    "latitude": 40.069099,
    "longitude": 45.038189,
    "CBPFFundStatus":"",
    "CBPFId": "",
    "CERFId": 11,
    "AreaType": "Country"
  },
  {
    "id": 6,
    "PooledFundName": "Bahamas",
    "PooledFundNameAbbrv": "Bahamas",
    "RegionName": "Latin America",
    "RegionNameArr": "Latin America",
    "SubRegionName": "Caribbean",
    "ContinentName": "Americas",
    "CountryCode": "BHS",
    "ISO2Code": "BS",
    "latitude": 25.03428,
    "longitude": -77.39628,
    "CBPFFundStatus":"",
    "CBPFId": "",
    "CERFId": 114,
    "AreaType": "Country"
  },
  {
    "id": 7,
    "PooledFundName": "Bangladesh",
    "PooledFundNameAbbrv": "Bangladesh",
    "RegionName": "Southern Asia",
    "RegionNameArr": "Asia",
    "SubRegionName": "Southern Asia",
    "ContinentName": "Asia",
    "CountryCode": "BGD",
    "ISO2Code": "BD",
    "latitude": 23.684994,
    "longitude": 90.356331,
    "CBPFFundStatus":"",
    "CBPFId": "",
    "CERFId": 12,
    "AreaType": "Country"
  },
  {
    "id": 8,
    "PooledFundName": "Benin",
    "PooledFundNameAbbrv": "Benin",
    "RegionName": "Western Africa",
    "RegionNameArr": "Africa",
    "SubRegionName": "Western Africa",
    "ContinentName": "Africa",
    "CountryCode": "BEN",
    "ISO2Code": "BJ",
    "latitude": 9.30769,
    "longitude": 2.315834,
    "CBPFFundStatus":"",
    "CBPFId": "",
    "CERFId": 13,
    "AreaType": "Country"
  },
  {
    "id": 9,
    "PooledFundName": "Bhutan",
    "PooledFundNameAbbrv": "Bhutan",
    "RegionName": "Southern Asia",
    "RegionNameArr": "Asia",
    "SubRegionName": "Southern Asia",
    "ContinentName": "Asia",
    "CountryCode": "BTN",
    "ISO2Code": "BT",
    "latitude": 27.514162,
    "longitude": 90.433601,
    "CBPFFundStatus":"",
    "CBPFId": "",
    "CERFId": 14,
    "AreaType": "Country"
  },
  {
    "id": 10,
    "PooledFundName": "Bolivia",
    "PooledFundNameAbbrv": "Bolivia",
    "RegionName": "Latin America",
    "RegionNameArr": "Latin America",
    "SubRegionName": "South America",
    "ContinentName": "Americas",
    "CountryCode": "BOL",
    "ISO2Code": "BO",
    "latitude": -16.290154,
    "longitude": -63.588653,
    "CBPFFundStatus":"",
    "CBPFId": "",
    "CERFId": 15,
    "AreaType": "Country"
  },
  {
    "id": 11,
    "PooledFundName": "Bosnia and Herzegovina",
    "PooledFundNameAbbrv": "Bosnia and Herzegovina",
    "RegionName": "Southern Europe",
    "RegionNameArr": "Europe",
    "SubRegionName": "Southern Europe",
    "ContinentName": "Europe",
    "CountryCode": "BIH",
    "ISO2Code": "BA",
    "latitude": 43.915886,
    "longitude": 17.679076,
    "CBPFFundStatus":"",
    "CBPFId": "",
    "CERFId": 210,
    "AreaType": "Country"
  },
  {
    "id": 12,
    "PooledFundName": "Brazil",
    "PooledFundNameAbbrv": "Brazil",
    "RegionName": "Latin America",
    "RegionNameArr": "Latin America",
    "SubRegionName": "Central America",
    "ContinentName": "Americas",
    "CountryCode": "BRA",
    "ISO2Code": "BR",
    "latitude": -14.235004,
    "longitude": -51.92528,
    "CBPFFundStatus":"",
    "CBPFId": "",
    "CERFId": 139,
    "AreaType": "Country"
  },
  {
    "id": 13,
    "PooledFundName": "Burkina Faso",
    "PooledFundNameAbbrv": "Burkina Faso",
    "RegionName": "Western Africa",
    "RegionNameArr": "Africa",
    "SubRegionName": "Western Africa",
    "ContinentName": "Africa",
    "CountryCode": "BFA",
    "ISO2Code": "BF",
    "latitude": 12.238333,
    "longitude": -1.561593,
    "CBPFFundStatus":"",
    "CBPFId": 85,
    "CERFId": 16,
    "AreaType": "Country"
  },
  {
    "id": 14,
    "PooledFundName": "Burundi",
    "PooledFundNameAbbrv": "Burundi",
    "RegionName": "Eastern Africa",
    "RegionNameArr": "Africa",
    "SubRegionName": "Eastern Africa",
    "ContinentName": "Africa",
    "CountryCode": "BDI",
    "ISO2Code": "BI",
    "latitude": -3.373056,
    "longitude": 29.918886,
    "CBPFFundStatus":"",
    "CBPFId": "",
    "CERFId": 17,
    "AreaType": "Country"
  },
  {
    "id": 15,
    "PooledFundName": "Cambodia",
    "PooledFundNameAbbrv": "Cambodia",
    "RegionName": "South-Eastern Asia",
    "RegionNameArr": "Asia",
    "SubRegionName": "South-Eastern Asia",
    "ContinentName": "Asia",
    "CountryCode": "KHM",
    "ISO2Code": "KH",
    "latitude": 12.565679,
    "longitude": 104.990963,
    "CBPFFundStatus":"",
    "CBPFId": "",
    "CERFId": 163,
    "AreaType": "Country"
  },
  {
    "id": 16,
    "PooledFundName": "Cameroon",
    "PooledFundNameAbbrv": "Cameroon",
    "RegionName": "Middle Africa",
    "RegionNameArr": "Africa",
    "SubRegionName": "Middle Africa",
    "ContinentName": "Africa",
    "CountryCode": "CMR",
    "ISO2Code": "CM",
    "latitude": 7.369722,
    "longitude": 12.354722,
    "CBPFFundStatus":"",
    "CBPFId": "",
    "CERFId": 18,
    "AreaType": "Country"
  },
  {
    "id": 17,
    "PooledFundName": "Cape Verde",
    "PooledFundNameAbbrv": "Cape Verde",
    "RegionName": "Western Africa",
    "RegionNameArr": "Africa",
    "SubRegionName": "Western Africa",
    "ContinentName": "Africa",
    "CountryCode": "CPV",
    "ISO2Code": "CV",
    "latitude": 16.002082,
    "longitude": -24.013197,
    "CBPFFundStatus":"",
    "CBPFId": "",
    "CERFId": 19,
    "AreaType": "Country"
  },
  {
    "id": 18,
    "PooledFundName": "Central African Republic",
    "PooledFundNameAbbrv": "CAR",
    "RegionName": "Middle Africa",
    "RegionNameArr": "Africa",
    "SubRegionName": "Middle Africa",
    "ContinentName": "Africa",
    "CountryCode": "CAF",
    "ISO2Code": "CF",
    "latitude": 6.611111,
    "longitude": 20.939444,
    "CBPFFundStatus":"",
    "CBPFId": 17,
    "CERFId": 20,
    "AreaType": "Country"
  },
  {
    "id": 19,
    "PooledFundName": "Chad",
    "PooledFundNameAbbrv": "Chad",
    "RegionName": "Middle Africa",
    "RegionNameArr": "Africa",
    "SubRegionName": "Middle Africa",
    "ContinentName": "Africa",
    "CountryCode": "TCD",
    "ISO2Code": "TD",
    "latitude": 15.454166,
    "longitude": 18.732207,
    "CBPFFundStatus":"",
    "CBPFId": "",
    "CERFId": 21,
    "AreaType": "Country"
  },
  {
    "id": 20,
    "PooledFundName": "Chile",
    "PooledFundNameAbbrv": "Chile",
    "RegionName": "Latin America",
    "RegionNameArr": "Latin America",
    "SubRegionName": "South America",
    "ContinentName": "Americas",
    "CountryCode": "CHL",
    "ISO2Code": "CL",
    "latitude": -35.675147,
    "longitude": -71.542969,
    "CBPFFundStatus":"",
    "CBPFId": "",
    "CERFId": 22,
    "AreaType": "Country"
  },
  {
    "id": 21,
    "PooledFundName": "China",
    "PooledFundNameAbbrv": "China",
    "RegionName": "Eastern Asia",
    "RegionNameArr": "Asia",
    "SubRegionName": "Eastern Asia",
    "ContinentName": "Asia",
    "CountryCode": "CHN",
    "ISO2Code": "CN",
    "latitude": 35.86166,
    "longitude": 104.195397,
    "CBPFFundStatus":"",
    "CBPFId": "",
    "CERFId": 23,
    "AreaType": "Country"
  },
  {
    "id": 22,
    "PooledFundName": "Colombia",
    "PooledFundNameAbbrv": "Colombia",
    "RegionName": "Latin America",
    "RegionNameArr": "Latin America",
    "SubRegionName": "South America",
    "ContinentName": "Americas",
    "CountryCode": "COL",
    "ISO2Code": "CO",
    "latitude": 4.570868,
    "longitude": -74.297333,
    "CBPFFundStatus":"",
    "CBPFId": 52,
    "CERFId": 24,
    "AreaType": "Country"
  },
  {
    "id": 23,
    "PooledFundName": "Comoros",
    "PooledFundNameAbbrv": "Comoros",
    "RegionName": "Eastern Africa",
    "RegionNameArr": "Africa",
    "SubRegionName": "Eastern Africa",
    "ContinentName": "Africa",
    "CountryCode": "COM",
    "ISO2Code": "KM",
    "latitude": -11.875001,
    "longitude": 43.872219,
    "CBPFFundStatus":"",
    "CBPFId": "",
    "CERFId": 25,
    "AreaType": "Country"
  },
  {
    "id": 24,
    "PooledFundName": "Cote d'Ivoire",
    "PooledFundNameAbbrv": "Cote d'Ivoire",
    "RegionName": "Western Africa",
    "RegionNameArr": "Africa",
    "SubRegionName": "Western Africa",
    "ContinentName": "Africa",
    "CountryCode": "CIV",
    "ISO2Code": "CI",
    "latitude": 7.539989,
    "longitude": -5.54708,
    "CBPFFundStatus":"Closed",
    "CBPFId": 92,
    "CERFId": 28,
    "AreaType": "Country"
  },
  {
    "id": 25,
    "PooledFundName": "Cuba",
    "PooledFundNameAbbrv": "Cuba",
    "RegionName": "Latin America",
    "RegionNameArr": "Latin America",
    "SubRegionName": "Caribbean",
    "ContinentName": "Americas",
    "CountryCode": "CUB",
    "ISO2Code": "CU",
    "latitude": 21.521757,
    "longitude": -77.781167,
    "CBPFFundStatus":"",
    "CBPFId": "",
    "CERFId": 29,
    "AreaType": "Country"
  },
  {
    "id": 26,
    "PooledFundName": "Democratic People's Republic of Korea",
    "PooledFundNameAbbrv": "DPRK",
    "RegionName": "Eastern Asia",
    "RegionNameArr": "Asia",
    "SubRegionName": "Eastern Asia",
    "ContinentName": "Asia",
    "CountryCode": "PRK",
    "ISO2Code": "KP",
    "latitude": 40.339852,
    "longitude": 127.510093,
    "CBPFFundStatus":"",
    "CBPFId": "",
    "CERFId": 49,
    "AreaType": "Country"
  },
  {
    "id": 27,
    "PooledFundName": "Democratic Republic of the Congo",
    "PooledFundNameAbbrv": "DRC",
    "RegionName": "Middle Africa",
    "RegionNameArr": "Africa",
    "SubRegionName": "Middle Africa",
    "ContinentName": "Africa",
    "CountryCode": "COD",
    "ISO2Code": "CD",
    "latitude": -4.038333,
    "longitude": 21.758664,
    "CBPFFundStatus":"",
    "CBPFId": 24,
    "CERFId": 27,
    "AreaType": "Country"
  },
  {
    "id": 28,
    "PooledFundName": "Djibouti",
    "PooledFundNameAbbrv": "Djibouti",
    "RegionName": "Eastern Africa",
    "RegionNameArr": "Africa",
    "SubRegionName": "Eastern Africa",
    "ContinentName": "Africa",
    "CountryCode": "DJI",
    "ISO2Code": "DJ",
    "latitude": 11.825138,
    "longitude": 42.590275,
    "CBPFFundStatus":"",
    "CBPFId": "",
    "CERFId": 30,
    "AreaType": "Country"
  },
  {
    "id": 29,
    "PooledFundName": "Dominica",
    "PooledFundNameAbbrv": "Dominica",
    "RegionName": "Latin America",
    "RegionNameArr": "Latin America",
    "SubRegionName": "Caribbean",
    "ContinentName": "Americas",
    "CountryCode": "DMA",
    "ISO2Code": "DM",
    "latitude": 15.414999,
    "longitude": -61.370976,
    "CBPFFundStatus":"",
    "CBPFId": "",
    "CERFId": 120,
    "AreaType": "Country"
  },
  {
    "id": 30,
    "PooledFundName": "Dominican Republic",
    "PooledFundNameAbbrv": "Dominican Republic",
    "RegionName": "Latin America",
    "RegionNameArr": "Latin America",
    "SubRegionName": "Caribbean",
    "ContinentName": "Americas",
    "CountryCode": "DOM",
    "ISO2Code": "DO",
    "latitude": 18.735693,
    "longitude": -70.162651,
    "CBPFFundStatus":"",
    "CBPFId": "",
    "CERFId": 31,
    "AreaType": "Country"
  },
  {
    "id": 31,
    "PooledFundName": "Eastern Africa",
    "PooledFundNameAbbrv": "Eastern Africa",
    "RegionName": "Eastern Africa",
    "RegionNameArr": "Africa",
    "SubRegionName": "Eastern Africa",
    "ContinentName": "Africa",
    "CountryCode": "EAF",
    "ISO2Code": "0E",
    "latitude": "#N/A",
    "longitude": "#N/A",
    "CBPFFundStatus":"",
    "CBPFId": "",
    "CERFId": 268,
    "AreaType": "Regional"
  },
  {
    "id": 32,
    "PooledFundName": "Ecuador",
    "PooledFundNameAbbrv": "Ecuador",
    "RegionName": "Latin America",
    "RegionNameArr": "Latin America",
    "SubRegionName": "Central America",
    "ContinentName": "Americas",
    "CountryCode": "ECU",
    "ISO2Code": "EC",
    "latitude": -1.831239,
    "longitude": -78.183406,
    "CBPFFundStatus":"",
    "CBPFId": "",
    "CERFId": 140,
    "AreaType": "Country"
  },
  {
    "id": 33,
    "PooledFundName": "Egypt",
    "PooledFundNameAbbrv": "Egypt",
    "RegionName": "Northern africa",
    "RegionNameArr": "Africa",
    "SubRegionName": "Northern africa",
    "ContinentName": "Africa",
    "CountryCode": "EGY",
    "ISO2Code": "EG",
    "latitude": 26.820553,
    "longitude": 30.802498,
    "CBPFFundStatus":"",
    "CBPFId": "",
    "CERFId": 96,
    "AreaType": "Country"
  },
  {
    "id": 34,
    "PooledFundName": "El Salvador",
    "PooledFundNameAbbrv": "El Salvador",
    "RegionName": "Latin America",
    "RegionNameArr": "Latin America",
    "SubRegionName": "Central America",
    "ContinentName": "Americas",
    "CountryCode": "SLV",
    "ISO2Code": "SV",
    "latitude": 13.794185,
    "longitude": -88.89653,
    "CBPFFundStatus":"",
    "CBPFId": "",
    "CERFId": 32,
    "AreaType": "Country"
  },
  {
    "id": 35,
    "PooledFundName": "Eritrea",
    "PooledFundNameAbbrv": "Eritrea",
    "RegionName": "Eastern Africa",
    "RegionNameArr": "Africa",
    "SubRegionName": "Eastern Africa",
    "ContinentName": "Africa",
    "CountryCode": "ERI",
    "ISO2Code": "ER",
    "latitude": 15.179384,
    "longitude": 39.782334,
    "CBPFFundStatus":"",
    "CBPFId": "",
    "CERFId": 33,
    "AreaType": "Country"
  },
  {
    "id": 36,
    "PooledFundName": "Ethiopia",
    "PooledFundNameAbbrv": "Ethiopia",
    "RegionName": "Eastern Africa",
    "RegionNameArr": "Africa",
    "SubRegionName": "Eastern Africa",
    "ContinentName": "Africa",
    "CountryCode": "ETH",
    "ISO2Code": "ET",
    "latitude": 9.145,
    "longitude": 40.489673,
    "CBPFFundStatus":"",
    "CBPFId": 53,
    "CERFId": 34,
    "AreaType": "Country"
  },
  {
    "id": 37,
    "PooledFundName": "Fiji",
    "PooledFundNameAbbrv": "Fiji",
    "RegionName": "Melanesia",
    "RegionNameArr": "Asia",
    "SubRegionName": "Melanesia",
    "ContinentName": "Oceania",
    "CountryCode": "FJI",
    "ISO2Code": "FJ",
    "latitude": -16.578193,
    "longitude": 179.414413,
    "CBPFFundStatus":"",
    "CBPFId": "",
    "CERFId": 236,
    "AreaType": "Country"
  },
  {
    "id": 38,
    "PooledFundName": "Gambia",
    "PooledFundNameAbbrv": "Gambia",
    "RegionName": "Western Africa",
    "RegionNameArr": "Africa",
    "SubRegionName": "Western Africa",
    "ContinentName": "Africa",
    "CountryCode": "GMB",
    "ISO2Code": "GM",
    "latitude": 13.443182,
    "longitude": -15.310139,
    "CBPFFundStatus":"",
    "CBPFId": "",
    "CERFId": 35,
    "AreaType": "Country"
  },
  {
    "id": 39,
    "PooledFundName": "Georgia",
    "PooledFundNameAbbrv": "Georgia",
    "RegionName": "Western Asia",
    "RegionNameArr": "Middle East",
    "SubRegionName": "Western Asia",
    "ContinentName": "Asia",
    "CountryCode": "GEO",
    "ISO2Code": "GE",
    "latitude": 42.315407,
    "longitude": 43.356892,
    "CBPFFundStatus":"",
    "CBPFId": "",
    "CERFId": 36,
    "AreaType": "Country"
  },
  {
    "id": 40,
    "PooledFundName": "Ghana",
    "PooledFundNameAbbrv": "Ghana",
    "RegionName": "Western Africa",
    "RegionNameArr": "Africa",
    "SubRegionName": "Western Africa",
    "ContinentName": "Africa",
    "CountryCode": "GHA",
    "ISO2Code": "GH",
    "latitude": 7.946527,
    "longitude": -1.023194,
    "CBPFFundStatus":"",
    "CBPFId": "",
    "CERFId": 37,
    "AreaType": "Country"
  },
  {
    "id": 41,
    "PooledFundName": "Global",
    "PooledFundNameAbbrv": "Global",
    "RegionName": "Global",
    "RegionNameArr": "Global",
    "SubRegionName": "Global",
    "ContinentName": "Global",
    "CountryCode": "GLB",
    "ISO2Code": "0G",
    "latitude": "#N/A",
    "longitude": "#N/A",
    "CBPFFundStatus":"",
    "CBPFId": "",
    "CERFId": 269,
    "AreaType": "Regional"
  },
  {
    "id": 42,
    "PooledFundName": "Guatemala",
    "PooledFundNameAbbrv": "Guatemala",
    "RegionName": "Latin America",
    "RegionNameArr": "Latin America",
    "SubRegionName": "Central America",
    "ContinentName": "Americas",
    "CountryCode": "GTM",
    "ISO2Code": "GT",
    "latitude": 15.783471,
    "longitude": -90.230759,
    "CBPFFundStatus":"",
    "CBPFId": "",
    "CERFId": 38,
    "AreaType": "Country"
  },
  {
    "id": 43,
    "PooledFundName": "Guinea",
    "PooledFundNameAbbrv": "Guinea",
    "RegionName": "Western Africa",
    "RegionNameArr": "Africa",
    "SubRegionName": "Western Africa",
    "ContinentName": "Africa",
    "CountryCode": "GIN",
    "ISO2Code": "GN",
    "latitude": 9.945587,
    "longitude": -9.696645,
    "CBPFFundStatus":"",
    "CBPFId": "",
    "CERFId": 39,
    "AreaType": "Country"
  },
  {
    "id": 44,
    "PooledFundName": "Guinea-Bissau",
    "PooledFundNameAbbrv": "Guinea-Bissau",
    "RegionName": "Western Africa",
    "RegionNameArr": "Africa",
    "SubRegionName": "Western Africa",
    "ContinentName": "Africa",
    "CountryCode": "GNB",
    "ISO2Code": "GW",
    "latitude": 11.803749,
    "longitude": -15.180413,
    "CBPFFundStatus":"",
    "CBPFId": "",
    "CERFId": 40,
    "AreaType": "Country"
  },
  {
    "id": 45,
    "PooledFundName": "Haiti",
    "PooledFundNameAbbrv": "Haiti",
    "RegionName": "Latin America",
    "RegionNameArr": "Latin America",
    "SubRegionName": "Caribbean",
    "ContinentName": "Americas",
    "CountryCode": "HTI",
    "ISO2Code": "HT",
    "latitude": 18.971187,
    "longitude": -72.285215,
    "CBPFFundStatus":"",
    "CBPFId": 54,
    "CERFId": 41,
    "AreaType": "Country"
  },
  {
    "id": 46,
    "PooledFundName": "Honduras",
    "PooledFundNameAbbrv": "Honduras",
    "RegionName": "Latin America",
    "RegionNameArr": "Latin America",
    "SubRegionName": "Central America",
    "ContinentName": "Americas",
    "CountryCode": "HND",
    "ISO2Code": "HN",
    "latitude": 15.199999,
    "longitude": -86.241905,
    "CBPFFundStatus":"",
    "CBPFId": "",
    "CERFId": 42,
    "AreaType": "Country"
  },
  {
    "id": 47,
    "PooledFundName": "India",
    "PooledFundNameAbbrv": "India",
    "RegionName": "Southern Asia",
    "RegionNameArr": "Asia",
    "SubRegionName": "Southern Asia",
    "ContinentName": "Asia",
    "CountryCode": "IND",
    "ISO2Code": "IN",
    "latitude": 20.593684,
    "longitude": 78.96288,
    "CBPFFundStatus":"",
    "CBPFId": "",
    "CERFId": 43,
    "AreaType": "Country"
  },
  {
    "id": 48,
    "PooledFundName": "Indonesia",
    "PooledFundNameAbbrv": "Indonesia",
    "RegionName": "South-Eastern Asia",
    "RegionNameArr": "Asia",
    "SubRegionName": "South-Eastern Asia",
    "ContinentName": "Asia",
    "CountryCode": "IDN",
    "ISO2Code": "ID",
    "latitude": -0.789275,
    "longitude": 113.921327,
    "CBPFFundStatus":"Closed",
    "CBPFId": 55,
    "CERFId": 44,
    "AreaType": "Country"
  },
  {
    "id": 49,
    "PooledFundName": "Iraq",
    "PooledFundNameAbbrv": "Iraq",
    "RegionName": "Western Asia",
    "RegionNameArr": "Middle East",
    "SubRegionName": "Western Asia",
    "ContinentName": "Asia",
    "CountryCode": "IRQ",
    "ISO2Code": "IQ",
    "latitude": 33.223191,
    "longitude": 43.679291,
    "CBPFFundStatus":"",
    "CBPFId": 72,
    "CERFId": 45,
    "AreaType": "Country"
  },
  {
    "id": 50,
    "PooledFundName": "Islamic Republic of Iran",
    "PooledFundNameAbbrv": "Iran",
    "RegionName": "Southern Asia",
    "RegionNameArr": "Asia",
    "SubRegionName": "Southern Asia",
    "ContinentName": "Asia",
    "CountryCode": "IRN",
    "ISO2Code": "IR",
    "latitude": 32.427908,
    "longitude": 53.688046,
    "CBPFFundStatus":"",
    "CBPFId": "",
    "CERFId": 160,
    "AreaType": "Country"
  },
  {
    "id": 51,
    "PooledFundName": "Jordan",
    "PooledFundNameAbbrv": "Jordan",
    "RegionName": "Western Asia",
    "RegionNameArr": "Middle East",
    "SubRegionName": "Western Asia",
    "ContinentName": "Asia",
    "CountryCode": "JOR",
    "ISO2Code": "JO",
    "latitude": 30.585164,
    "longitude": 36.238414,
    "CBPFFundStatus":"",
    "CBPFId": 73,
    "CERFId": 47,
    "AreaType": "Country"
  },
  {
    "id": 52,
    "PooledFundName": "Kenya",
    "PooledFundNameAbbrv": "Kenya",
    "RegionName": "Eastern Africa",
    "RegionNameArr": "Africa",
    "SubRegionName": "Eastern Africa",
    "ContinentName": "Africa",
    "CountryCode": "KEN",
    "ISO2Code": "KE",
    "latitude": -0.023559,
    "longitude": 37.906193,
    "CBPFFundStatus":"Closed",
    "CBPFId": 57,
    "CERFId": 48,
    "AreaType": "Country"
  },
  {
    "id": 53,
    "PooledFundName": "Kyrgyzstan",
    "PooledFundNameAbbrv": "Kyrgyzstan",
    "RegionName": "Central Asia",
    "RegionNameArr": "Asia",
    "SubRegionName": "Central Asia",
    "ContinentName": "Asia",
    "CountryCode": "KGZ",
    "ISO2Code": "KG",
    "latitude": 41.20438,
    "longitude": 74.766098,
    "CBPFFundStatus":"",
    "CBPFId": "",
    "CERFId": 50,
    "AreaType": "Country"
  },
  {
    "id": 54,
    "PooledFundName": "Lao People's Democratic Republic",
    "PooledFundNameAbbrv": "Laos",
    "RegionName": "South-Eastern Asia",
    "RegionNameArr": "Asia",
    "SubRegionName": "South-Eastern Asia",
    "ContinentName": "Asia",
    "CountryCode": "LAO",
    "ISO2Code": "LA",
    "latitude": 19.85627,
    "longitude": 102.495496,
    "CBPFFundStatus":"",
    "CBPFId": "",
    "CERFId": 51,
    "AreaType": "Country"
  },
  {
    "id": 55,
    "PooledFundName": "Lebanon",
    "PooledFundNameAbbrv": "Lebanon",
    "RegionName": "Western Asia",
    "RegionNameArr": "Middle East",
    "SubRegionName": "Western Asia",
    "ContinentName": "Asia",
    "CountryCode": "LBN",
    "ISO2Code": "LB",
    "latitude": 33.854721,
    "longitude": 35.862285,
    "CBPFFundStatus":"",
    "CBPFId": 71,
    "CERFId": 52,
    "AreaType": "Country"
  },
  {
    "id": 56,
    "PooledFundName": "Lesotho",
    "PooledFundNameAbbrv": "Lesotho",
    "RegionName": "Southern Africa",
    "RegionNameArr": "Africa",
    "SubRegionName": "Southern Africa",
    "ContinentName": "Africa",
    "CountryCode": "LSO",
    "ISO2Code": "LS",
    "latitude": -29.609988,
    "longitude": 28.233608,
    "CBPFFundStatus":"",
    "CBPFId": "",
    "CERFId": 52,
    "AreaType": "Country"
  },
  {
    "id": 57,
    "PooledFundName": "Liberia",
    "PooledFundNameAbbrv": "Liberia",
    "RegionName": "Western Africa",
    "RegionNameArr": "Africa",
    "SubRegionName": "Western Africa",
    "ContinentName": "Africa",
    "CountryCode": "LBR",
    "ISO2Code": "LR",
    "latitude": 6.428055,
    "longitude": -9.429499,
    "CBPFFundStatus":"Closed",
    "CBPFId": 93,
    "CERFId": 54,
    "AreaType": "Country"
  },
  {
    "id": 58,
    "PooledFundName": "Libya",
    "PooledFundNameAbbrv": "Libya",
    "RegionName": "Northern africa",
    "RegionNameArr": "Africa",
    "SubRegionName": "Northern africa",
    "ContinentName": "Africa",
    "CountryCode": "LBY",
    "ISO2Code": "LY",
    "latitude": 26.3351,
    "longitude": 17.228331,
    "CBPFFundStatus":"",
    "CBPFId": "",
    "CERFId": 97,
    "AreaType": "Country"
  },
  {
    "id": 59,
    "PooledFundName": "Madagascar",
    "PooledFundNameAbbrv": "Madagascar",
    "RegionName": "Eastern Africa",
    "RegionNameArr": "Africa",
    "SubRegionName": "Eastern Africa",
    "ContinentName": "Africa",
    "CountryCode": "MDG",
    "ISO2Code": "MG",
    "latitude": -18.766947,
    "longitude": 46.869107,
    "CBPFFundStatus":"",
    "CBPFId": "",
    "CERFId": 55,
    "AreaType": "Country"
  },
  {
    "id": 60,
    "PooledFundName": "Malawi",
    "PooledFundNameAbbrv": "Malawi",
    "RegionName": "Eastern Africa",
    "RegionNameArr": "Africa",
    "SubRegionName": "Eastern Africa",
    "ContinentName": "Africa",
    "CountryCode": "MWI",
    "ISO2Code": "MW",
    "latitude": -13.254308,
    "longitude": 34.301525,
    "CBPFFundStatus":"",
    "CBPFId": "",
    "CERFId": 56,
    "AreaType": "Country"
  },
  {
    "id": 61,
    "PooledFundName": "Mali",
    "PooledFundNameAbbrv": "Mali",
    "RegionName": "Western Africa",
    "RegionNameArr": "Africa",
    "SubRegionName": "Western Africa",
    "ContinentName": "Africa",
    "CountryCode": "MLI",
    "ISO2Code": "ML",
    "latitude": 17.570692,
    "longitude": -3.996166,
    "CBPFFundStatus":"",
    "CBPFId": "",
    "CERFId": 57,
    "AreaType": "Country"
  },
  {
    "id": 62,
    "PooledFundName": "Marshall Islands",
    "PooledFundNameAbbrv": "Marshall Islands",
    "RegionName": "Micronesia",
    "RegionNameArr": "Micronesia",
    "SubRegionName": "Micronesia",
    "ContinentName": "Oceania",
    "CountryCode": "MHL",
    "ISO2Code": "MH",
    "latitude": 7.131474,
    "longitude": 171.184478,
    "CBPFFundStatus":"",
    "CBPFId": "",
    "CERFId": 243,
    "AreaType": "Country"
  },
  {
    "id": 63,
    "PooledFundName": "Mauritania",
    "PooledFundNameAbbrv": "Mauritania",
    "RegionName": "Western Africa",
    "RegionNameArr": "Africa",
    "SubRegionName": "Western Africa",
    "ContinentName": "Africa",
    "CountryCode": "MRT",
    "ISO2Code": "MR",
    "latitude": 21.00789,
    "longitude": -10.940835,
    "CBPFFundStatus":"",
    "CBPFId": "",
    "CERFId": 58,
    "AreaType": "Country"
  },
  {
    "id": 64,
    "PooledFundName": "Mexico",
    "PooledFundNameAbbrv": "Mexico",
    "RegionName": "Latin America",
    "RegionNameArr": "Latin America",
    "SubRegionName": "Central America",
    "ContinentName": "Americas",
    "CountryCode": "MEX",
    "ISO2Code": "MX",
    "latitude": 23.634501,
    "longitude": -102.552784,
    "CBPFFundStatus":"",
    "CBPFId": "",
    "CERFId": 59,
    "AreaType": "Country"
  },
  {
    "id": 65,
    "PooledFundName": "Mongolia",
    "PooledFundNameAbbrv": "Mongolia",
    "RegionName": "Eastern Asia",
    "RegionNameArr": "Asia",
    "SubRegionName": "Eastern Asia",
    "ContinentName": "Asia",
    "CountryCode": "MNG",
    "ISO2Code": "MN",
    "latitude": 46.862496,
    "longitude": 103.846656,
    "CBPFFundStatus":"",
    "CBPFId": "",
    "CERFId": 60,
    "AreaType": "Country"
  },
  {
    "id": 66,
    "PooledFundName": "Mozambique",
    "PooledFundNameAbbrv": "Mozambique",
    "RegionName": "Eastern Africa",
    "RegionNameArr": "Africa",
    "SubRegionName": "Eastern Africa",
    "ContinentName": "Africa",
    "CountryCode": "MOZ",
    "ISO2Code": "MZ",
    "latitude": -18.665695,
    "longitude": 35.529562,
    "CBPFFundStatus":"",
    "CBPFId": "",
    "CERFId": 61,
    "AreaType": "Country"
  },
  {
    "id": 67,
    "PooledFundName": "Myanmar",
    "PooledFundNameAbbrv": "Myanmar",
    "RegionName": "South-Eastern Asia",
    "RegionNameArr": "Asia",
    "SubRegionName": "South-Eastern Asia",
    "ContinentName": "Asia",
    "CountryCode": "MMR",
    "ISO2Code": "MM",
    "latitude": 21.913965,
    "longitude": 95.956223,
    "CBPFFundStatus":"",
    "CBPFId": 59,
    "CERFId": 165,
    "AreaType": "Country"
  },
  {
    "id": 68,
    "PooledFundName": "Namibia",
    "PooledFundNameAbbrv": "Namibia",
    "RegionName": "Southern Africa",
    "RegionNameArr": "Africa",
    "SubRegionName": "Southern Africa",
    "ContinentName": "Africa",
    "CountryCode": "NAM",
    "ISO2Code": "NA",
    "latitude": -22.95764,
    "longitude": 18.49041,
    "CBPFFundStatus":"",
    "CBPFId": "",
    "CERFId": 63,
    "AreaType": "Country"
  },
  {
    "id": 69,
    "PooledFundName": "Nepal",
    "PooledFundNameAbbrv": "Nepal",
    "RegionName": "Southern Asia",
    "RegionNameArr": "Asia",
    "SubRegionName": "Southern Asia",
    "ContinentName": "Asia",
    "CountryCode": "NPL",
    "ISO2Code": "NP",
    "latitude": 28.394857,
    "longitude": 84.124008,
    "CBPFFundStatus":"Closed",
    "CBPFId": 68,
    "CERFId": 64,
    "AreaType": "Country"
  },
  {
    "id": 70,
    "PooledFundName": "Nicaragua",
    "PooledFundNameAbbrv": "Nicaragua",
    "RegionName": "Latin America",
    "RegionNameArr": "Latin America",
    "SubRegionName": "Central America",
    "ContinentName": "Americas",
    "CountryCode": "NIC",
    "ISO2Code": "NI",
    "latitude": 12.865416,
    "longitude": -85.207229,
    "CBPFFundStatus":"",
    "CBPFId": "",
    "CERFId": 65,
    "AreaType": "Country"
  },
  {
    "id": 71,
    "PooledFundName": "Niger",
    "PooledFundNameAbbrv": "Niger",
    "RegionName": "Western Africa",
    "RegionNameArr": "Africa",
    "SubRegionName": "Western Africa",
    "ContinentName": "Africa",
    "CountryCode": "NER",
    "ISO2Code": "NE",
    "latitude": 17.607789,
    "longitude": 8.081666,
    "CBPFFundStatus":"",
    "CBPFId": 84,
    "CERFId": 66,
    "AreaType": "Country"
  },
  {
    "id": 72,
    "PooledFundName": "Nigeria",
    "PooledFundNameAbbrv": "Nigeria",
    "RegionName": "Western Africa",
    "RegionNameArr": "Africa",
    "SubRegionName": "Western Africa",
    "ContinentName": "Africa",
    "CountryCode": "NGA",
    "ISO2Code": "NG",
    "latitude": 9.081999,
    "longitude": 8.675277,
    "CBPFFundStatus":"",
    "CBPFId": 75,
    "CERFId": 67,
    "AreaType": "Country"
  },
  {
    "id": 73,
    "PooledFundName": "occupied Palestinian territory",
    "PooledFundNameAbbrv": "oPt",
    "RegionName": "Western Asia",
    "RegionNameArr": "Middle East",
    "SubRegionName": "Western Asia",
    "ContinentName": "Asia",
    "CountryCode": "PSE",
    "ISO2Code": "PS",
    "latitude": 31.952162,
    "longitude": 35.233154,
    "CBPFFundStatus":"",
    "CBPFId": 67,
    "CERFId": 69,
    "AreaType": "Country"
  },
  {
    "id": 74,
    "PooledFundName": "Pakistan",
    "PooledFundNameAbbrv": "Pakistan",
    "RegionName": "Southern Asia",
    "RegionNameArr": "Asia",
    "SubRegionName": "Southern Asia",
    "ContinentName": "Asia",
    "CountryCode": "PAK",
    "ISO2Code": "PK",
    "latitude": 30.375321,
    "longitude": 69.345116,
    "CBPFFundStatus":"",
    "CBPFId": 60,
    "CERFId": 68,
    "AreaType": "Country"
  },
  {
    "id": 75,
    "PooledFundName": "Papua New Guinea",
    "PooledFundNameAbbrv": "Papua New Guinea",
    "RegionName": "Melanesia",
    "RegionNameArr": "Asia",
    "SubRegionName": "Melanesia",
    "ContinentName": "Oceania",
    "CountryCode": "PNG",
    "ISO2Code": "PG",
    "latitude": -6.314993,
    "longitude": 143.95555,
    "CBPFFundStatus":"",
    "CBPFId": "",
    "CERFId": 238,
    "AreaType": "Country"
  },
  {
    "id": 76,
    "PooledFundName": "Paraguay",
    "PooledFundNameAbbrv": "Paraguay",
    "RegionName": "Latin America",
    "RegionNameArr": "Latin America",
    "SubRegionName": "Central America",
    "ContinentName": "Americas",
    "CountryCode": "PRY",
    "ISO2Code": "PY",
    "latitude": -23.442503,
    "longitude": -58.443832,
    "CBPFFundStatus":"",
    "CBPFId": "",
    "CERFId": 144,
    "AreaType": "Country"
  },
  {
    "id": 77,
    "PooledFundName": "Peru",
    "PooledFundNameAbbrv": "Peru",
    "RegionName": "Latin America",
    "RegionNameArr": "Latin America",
    "SubRegionName": "South America",
    "ContinentName": "Americas",
    "CountryCode": "PER",
    "ISO2Code": "PE",
    "latitude": -9.189967,
    "longitude": -75.015152,
    "CBPFFundStatus":"",
    "CBPFId": "",
    "CERFId": 70,
    "AreaType": "Country"
  },
  {
    "id": 78,
    "PooledFundName": "Philippines",
    "PooledFundNameAbbrv": "Philippines",
    "RegionName": "South-Eastern Asia",
    "RegionNameArr": "Asia",
    "SubRegionName": "South-Eastern Asia",
    "ContinentName": "Asia",
    "CountryCode": "PHL",
    "ISO2Code": "PH",
    "latitude": 12.879721,
    "longitude": 121.774017,
    "CBPFFundStatus":"",
    "CBPFId": "",
    "CERFId": 71,
    "AreaType": "Country"
  },
  {
    "id": 79,
    "PooledFundName": "Republic of Congo",
    "PooledFundNameAbbrv": "Congo",
    "RegionName": "Middle Africa",
    "RegionNameArr": "Africa",
    "SubRegionName": "Middle Africa",
    "ContinentName": "Africa",
    "CountryCode": "COG",
    "ISO2Code": "CG",
    "latitude": -0.228021,
    "longitude": 15.827659,
    "CBPFFundStatus":"",
    "CBPFId": "",
    "CERFId": 26,
    "AreaType": "Country"
  },
  {
    "id": 80,
    "PooledFundName": "Republic of the Sudan",
    "PooledFundNameAbbrv": "Sudan",
    "RegionName": "Northern africa",
    "RegionNameArr": "Africa",
    "SubRegionName": "Northern africa",
    "ContinentName": "Africa",
    "CountryCode": "SDN",
    "ISO2Code": "SD",
    "latitude": 12.862807,
    "longitude": 30.217636,
    "CBPFFundStatus":"",
    "CBPFId": 15,
    "CERFId": 76,
    "AreaType": "Country"
  },
  {
    "id": 81,
    "PooledFundName": "Rwanda",
    "PooledFundNameAbbrv": "Rwanda",
    "RegionName": "Eastern Africa",
    "RegionNameArr": "Africa",
    "SubRegionName": "Eastern Africa",
    "ContinentName": "Africa",
    "CountryCode": "RWA",
    "ISO2Code": "RW",
    "latitude": -1.940278,
    "longitude": 29.873888,
    "CBPFFundStatus":"",
    "CBPFId": "",
    "CERFId": 72,
    "AreaType": "Country"
  },
  {
    "id": 82,
    "PooledFundName": "Samoa",
    "PooledFundNameAbbrv": "Samoa",
    "RegionName": "Polynesia",
    "RegionNameArr": "Polynesia",
    "SubRegionName": "Polynesia",
    "ContinentName": "Oceania",
    "CountryCode": "WSM",
    "ISO2Code": "WS",
    "latitude": -13.759029,
    "longitude": -172.104629,
    "CBPFFundStatus":"",
    "CBPFId": "",
    "CERFId": 253,
    "AreaType": "Country"
  },
  {
    "id": 83,
    "PooledFundName": "Senegal",
    "PooledFundNameAbbrv": "Senegal",
    "RegionName": "Western Africa",
    "RegionNameArr": "Africa",
    "SubRegionName": "Western Africa",
    "ContinentName": "Africa",
    "CountryCode": "SEN",
    "ISO2Code": "SN",
    "latitude": 14.497401,
    "longitude": -14.452362,
    "CBPFFundStatus":"",
    "CBPFId": "",
    "CERFId": 73,
    "AreaType": "Country"
  },
  {
    "id": 84,
    "PooledFundName": "Serbia",
    "PooledFundNameAbbrv": "Serbia",
    "RegionName": "Southern Europe",
    "RegionNameArr": "Europe",
    "SubRegionName": "Southern Europe",
    "ContinentName": "Europe",
    "CountryCode": "SRB",
    "ISO2Code": "RS",
    "latitude": 44.016521,
    "longitude": 21.005859,
    "CBPFFundStatus":"",
    "CBPFId": "",
    "CERFId": 220,
    "AreaType": "Country"
  },
  {
    "id": 85,
    "PooledFundName": "Sierra Leone",
    "PooledFundNameAbbrv": "Sierra Leone",
    "RegionName": "Western Africa",
    "RegionNameArr": "Africa",
    "SubRegionName": "Western Africa",
    "ContinentName": "Africa",
    "CountryCode": "SLE",
    "ISO2Code": "SL",
    "latitude": 8.460555,
    "longitude": -11.779889,
    "CBPFFundStatus":"",
    "CBPFId": "",
    "CERFId": 110,
    "AreaType": "Country"
  },
  {
    "id": 86,
    "PooledFundName": "Solomon Islands",
    "PooledFundNameAbbrv": "Solomon Islands",
    "RegionName": "Melanesia",
    "RegionNameArr": "Asia",
    "SubRegionName": "Melanesia",
    "ContinentName": "Oceania",
    "CountryCode": "SLB",
    "ISO2Code": "SB",
    "latitude": -9.64571,
    "longitude": 160.156194,
    "CBPFFundStatus":"",
    "CBPFId": "",
    "CERFId": 239,
    "AreaType": "Country"
  },
  {
    "id": 87,
    "PooledFundName": "Somalia",
    "PooledFundNameAbbrv": "Somalia",
    "RegionName": "Eastern Africa",
    "RegionNameArr": "Africa",
    "SubRegionName": "Eastern Africa",
    "ContinentName": "Africa",
    "CountryCode": "SOM",
    "ISO2Code": "SO",
    "latitude": 5.152149,
    "longitude": 46.199616,
    "CBPFFundStatus":"",
    "CBPFId": 21,
    "CERFId": 74,
    "AreaType": "Country"
  },
  {
    "id": 88,
    "PooledFundName": "South Sudan",
    "PooledFundNameAbbrv": "South Sudan",
    "RegionName": "Eastern Africa",
    "RegionNameArr": "Africa",
    "SubRegionName": "Eastern Africa",
    "ContinentName": "Africa",
    "CountryCode": "SSD",
    "ISO2Code": "SS",
    "latitude": 4.85165,
    "longitude": 31.58247,
    "CBPFFundStatus":"",
    "CBPFId": 19,
    "CERFId": 91,
    "AreaType": "Country"
  },
  {
    "id": 89,
    "PooledFundName": "Sri Lanka",
    "PooledFundNameAbbrv": "Sri Lanka",
    "RegionName": "Southern Asia",
    "RegionNameArr": "Asia",
    "SubRegionName": "Southern Asia",
    "ContinentName": "Asia",
    "CountryCode": "LKA",
    "ISO2Code": "LK",
    "latitude": 7.873054,
    "longitude": 80.771797,
    "CBPFFundStatus":"",
    "CBPFId": "",
    "CERFId": 75,
    "AreaType": "Country"
  },
  {
    "id": 90,
    "PooledFundName": "Swaziland",
    "PooledFundNameAbbrv": "Swaziland",
    "RegionName": "Southern Africa",
    "RegionNameArr": "Africa",
    "SubRegionName": "Southern Africa",
    "ContinentName": "Africa",
    "CountryCode": "SWZ",
    "ISO2Code": "SZ",
    "latitude": -26.522503,
    "longitude": 31.465866,
    "CBPFFundStatus":"",
    "CBPFId": "",
    "CERFId": 77,
    "AreaType": "Country"
  },
  {
    "id": 91,
    "PooledFundName": "Syrian Arab Republic",
    "PooledFundNameAbbrv": "Syria",
    "RegionName": "Western Asia",
    "RegionNameArr": "Middle East",
    "SubRegionName": "Western Asia",
    "ContinentName": "Asia",
    "CountryCode": "SYR",
    "ISO2Code": "SY",
    "latitude": 34.802075,
    "longitude": 38.996815,
    "CBPFFundStatus":"",
    "CBPFId": 62,
    "CERFId": 78,
    "AreaType": "Country"
  },
  {
    "id": 92,
    "PooledFundName": "Tajikistan",
    "PooledFundNameAbbrv": "Tajikistan",
    "RegionName": "Central Asia",
    "RegionNameArr": "Asia",
    "SubRegionName": "Central Asia",
    "ContinentName": "Asia",
    "CountryCode": "TJK",
    "ISO2Code": "TJ",
    "latitude": 38.861034,
    "longitude": 71.276093,
    "CBPFFundStatus":"",
    "CBPFId": "",
    "CERFId": 79,
    "AreaType": "Country"
  },
  {
    "id": 93,
    "PooledFundName": "Timor-Leste",
    "PooledFundNameAbbrv": "Timor-Leste",
    "RegionName": "South-Eastern Asia",
    "RegionNameArr": "Asia",
    "SubRegionName": "South-Eastern Asia",
    "ContinentName": "Asia",
    "CountryCode": "TLS",
    "ISO2Code": "TL",
    "latitude": -8.874217,
    "longitude": 125.727539,
    "CBPFFundStatus":"",
    "CBPFId": "",
    "CERFId": 81,
    "AreaType": "Country"
  },
  {
    "id": 94,
    "PooledFundName": "Togo",
    "PooledFundNameAbbrv": "Togo",
    "RegionName": "Western Africa",
    "RegionNameArr": "Africa",
    "SubRegionName": "Western Africa",
    "ContinentName": "Africa",
    "CountryCode": "TGO",
    "ISO2Code": "TG",
    "latitude": 8.619543,
    "longitude": 0.824782,
    "CBPFFundStatus":"",
    "CBPFId": "",
    "CERFId": 82,
    "AreaType": "Country"
  },
  {
    "id": 95,
    "PooledFundName": "Tunisia",
    "PooledFundNameAbbrv": "Tunisia",
    "RegionName": "Northern africa",
    "RegionNameArr": "Africa",
    "SubRegionName": "Northern africa",
    "ContinentName": "Africa",
    "CountryCode": "TUN",
    "ISO2Code": "TN",
    "latitude": 33.886917,
    "longitude": 9.537499,
    "CBPFFundStatus":"",
    "CBPFId": "",
    "CERFId": 98,
    "AreaType": "Country"
  },
  {
    "id": 96,
    "PooledFundName": "T端rkiye",
    "PooledFundNameAbbrv": "T端rkiye",
    "RegionName": "Western Asia",
    "RegionNameArr": "Middle East",
    "SubRegionName": "Western Asia",
    "ContinentName": "Asia",
    "CountryCode": "TUR",
    "ISO2Code": "TR",
    "latitude": 38.963745,
    "longitude": 35.243322,
    "CBPFFundStatus":"",
    "CBPFId": "",
    "CERFId": 177,
    "AreaType": "Country"
  },
  {
    "id": 96,
    "PooledFundName": "T端rkiye",
    "PooledFundNameAbbrv": "T端rkiye",
    "RegionName": "Western Asia",
    "RegionNameArr": "Middle East",
    "SubRegionName": "Western Asia",
    "ContinentName": "Asia",
    "CountryCode": "TUR",
    "ISO2Code": "TR",
    "latitude": 38.963745,
    "longitude": 35.243322,
    "CBPFFundStatus":"",
    "CBPFId": "",
    "CERFId": 177,
    "AreaType": "Country"
  },
  {
    "id": 97,
    "PooledFundName": "Uganda",
    "PooledFundNameAbbrv": "Uganda",
    "RegionName": "Eastern Africa",
    "RegionNameArr": "Africa",
    "SubRegionName": "Eastern Africa",
    "ContinentName": "Africa",
    "CountryCode": "UGA",
    "ISO2Code": "UG",
    "latitude": 1.373333,
    "longitude": 32.290275,
    "CBPFFundStatus":"Closed",
    "CBPFId": "",
    "CERFId": 83,
    "AreaType": "Country"
  },
  {
    "id": 98,
    "PooledFundName": "Ukraine",
    "PooledFundNameAbbrv": "Ukraine",
    "RegionName": "Eastern Europe",
    "RegionNameArr": "Europe",
    "SubRegionName": "Eastern Europe",
    "ContinentName": "Europe",
    "CountryCode": "UKR",
    "ISO2Code": "UA",
    "latitude": 48.379433,
    "longitude": 31.16558,
    "CBPFFundStatus":"",
    "CBPFId": 81,
    "CERFId": 188,
    "AreaType": "Country"
  },
  {
    "id": 99,
    "PooledFundName": "United Republic of Tanzania",
    "PooledFundNameAbbrv": "Tanzania",
    "RegionName": "Eastern Africa",
    "RegionNameArr": "Africa",
    "SubRegionName": "Eastern Africa",
    "ContinentName": "Africa",
    "CountryCode": "TZA",
    "ISO2Code": "TZ",
    "latitude": -6.369028,
    "longitude": 34.888822,
    "CBPFFundStatus":"",
    "CBPFId": "",
    "CERFId": 80,
    "AreaType": "Country"
  },
  {
    "id": 100,
    "PooledFundName": "Uzbekistan",
    "PooledFundNameAbbrv": "Uzbekistan",
    "RegionName": "Central Asia",
    "RegionNameArr": "Asia",
    "SubRegionName": "Central Asia",
    "ContinentName": "Asia",
    "CountryCode": "UZB",
    "ISO2Code": "UZ",
    "latitude": 41.377491,
    "longitude": 64.585262,
    "CBPFFundStatus":"",
    "CBPFId": "",
    "CERFId": 155,
    "AreaType": "Country"
  },
  {
    "id": 101,
    "PooledFundName": "Vanuatu",
    "PooledFundNameAbbrv": "Vanuatu",
    "RegionName": "Melanesia",
    "RegionNameArr": "Asia",
    "SubRegionName": "Melanesia",
    "ContinentName": "Oceania",
    "CountryCode": "VUT",
    "ISO2Code": "VU",
    "latitude": -15.376706,
    "longitude": 166.959158,
    "CBPFFundStatus":"",
    "CBPFId": "",
    "CERFId": 240,
    "AreaType": "Country"
  },
  {
    "id": 102,
    "PooledFundName": "Venezuela",
    "PooledFundNameAbbrv": "Venezuela",
    "RegionName": "Latin America",
    "RegionNameArr": "Latin America",
    "SubRegionName": "Central America",
    "ContinentName": "Americas",
    "CountryCode": "VEN",
    "ISO2Code": "VE",
    "latitude": 6.42375,
    "longitude": -66.58973,
    "CBPFFundStatus":"",
    "CBPFId": 83,
    "CERFId": 147,
    "AreaType": "Country"
  },
  {
    "id": 103,
    "PooledFundName": "Venezuela Regional Refugee and Migration Crisis",
    "PooledFundNameAbbrv": "Venezuela Regional Refugee and Migration Crisis",
    "RegionName": "Latin America",
    "RegionNameArr": "Latin America",
    "SubRegionName": "South America",
    "ContinentName": "Americas",
    "CountryCode": "VZR",
    "ISO2Code": "0V",
    "latitude": "#N/A",
    "longitude": "#N/A",
    "CBPFFundStatus":"",
    "CBPFId": "",
    "CERFId": 267,
    "AreaType": "Regional"
  },
  {
    "id": 104,
    "PooledFundName": "Viet Nam",
    "PooledFundNameAbbrv": "Viet Nam",
    "RegionName": "South-Eastern Asia",
    "RegionNameArr": "Asia",
    "SubRegionName": "South-Eastern Asia",
    "ContinentName": "Asia",
    "CountryCode": "VNM",
    "ISO2Code": "VN",
    "latitude": 14.058324,
    "longitude": 108.277199,
    "CBPFFundStatus":"",
    "CBPFId": "",
    "CERFId": 168,
    "AreaType": "Country"
  },
  {
    "id": 105,
    "PooledFundName": "Yemen",
    "PooledFundNameAbbrv": "Yemen",
    "RegionName": "Western Asia",
    "RegionNameArr": "Middle East",
    "SubRegionName": "Western Asia",
    "ContinentName": "Asia",
    "CountryCode": "YEM",
    "ISO2Code": "YE",
    "latitude": 15.552727,
    "longitude": 48.516388,
    "CBPFFundStatus":"",
    "CBPFId": 64,
    "CERFId": 85,
    "AreaType": "Country"
  },
  {
    "id": 106,
    "PooledFundName": "Zambia",
    "PooledFundNameAbbrv": "Zambia",
    "RegionName": "Eastern Africa",
    "RegionNameArr": "Africa",
    "SubRegionName": "Eastern Africa",
    "ContinentName": "Africa",
    "CountryCode": "ZMB",
    "ISO2Code": "ZM",
    "latitude": -13.133897,
    "longitude": 27.849332,
    "CBPFFundStatus":"",
    "CBPFId": "",
    "CERFId": 86,
    "AreaType": "Country"
  },
  {
    "id": 107,
    "PooledFundName": "Zimbabwe",
    "PooledFundNameAbbrv": "Zimbabwe",
    "RegionName": "Eastern Africa",
    "RegionNameArr": "Africa",
    "SubRegionName": "Eastern Africa",
    "ContinentName": "Africa",
    "CountryCode": "ZWE",
    "ISO2Code": "ZW",
    "latitude": -19.015438,
    "longitude": 29.154857,
    "CBPFFundStatus":"Closed",
    "CBPFId": 66,
    "CERFId": 87,
    "AreaType": "Country"
  },
  {
    "id": 108,
    "PooledFundName": "Syria Cross border",
    "PooledFundNameAbbrv": "Syria Cross border",
    "RegionName": "Western Asia",
    "RegionNameArr": "Middle East",
    "SubRegionName": "Western Asia",
    "ContinentName": "Asia",
    "CountryCode": "XX",
    "ISO2Code": "XX",
    "latitude": 37.065378,
    "longitude": 37.393274,
    "CBPFFundStatus":"",
    "CBPFId": 70,
    "CERFId": "",
    "AreaType": "Country"
  },
  {
    "id": 109,
    "PooledFundName": "CERF",
    "PooledFundNameAbbrv": "CERF",
    "RegionName": "CERF",
    "RegionNameArr": "CERF",
    "SubRegionName": "CERF",
    "ContinentName": "CERF",
    "CountryCode": "CERF",
    "ISO2Code": "CERF",
    "latitude": 40.71427,
    "longitude": -74.00597,
    "CBPFFundStatus":"",
    "CBPFId": "",
    "CERFId": "",
    "AreaType": "Country"
  },
  {
    "id": 110,
    "PooledFundName": "Southern Africa",
    "PooledFundNameAbbrv": "Southern Africa",
    "RegionName": "Southern Africa",
    "RegionNameArr": "Africa",
    "SubRegionName": "Southern Africa",
    "ContinentName": "Africa",
    "CountryCode": "XX",
    "ISO2Code": "0SOA",
    "latitude": -29.6099,
    "longitude": 28.2336,
    "CBPFFundStatus":"",
    "CBPFId": "",
    "CERFId": 270,
    "AreaType": "Regional"
  },
  {
    "id": 111,
    "PooledFundName": "Azerbaijan",
    "PooledFundNameAbbrv": "Azerbaijan",
    "RegionName": "Western Asia",
    "RegionNameArr": "Middle East",
    "SubRegionName": "Western Asia",
    "ContinentName": "Asia",
    "CountryCode": "AZE",
    "ISO2Code": "AZ",
    "latitude": 40.409264,
    "longitude": 49.867092,
    "CBPFFundStatus":"",
    "CBPFId": "",
    "CERFId": 169,
    "AreaType": "Country"
  },
  {
    "id": 112,
    "PooledFundName": "Equatorial Guinea",
    "PooledFundNameAbbrv": "Equatorial Guinea",
    "RegionName": "Middle Africa",
    "RegionNameArr": "Africa",
    "SubRegionName": "Middle Africa",
    "ContinentName": "Africa",
    "CountryCode": "GNQ",
    "ISO2Code": "GQ",
    "latitude": 1.6195,
    "longitude": 10.3178,
    "CBPFFundStatus":"",
    "CBPFId": "",
    "CERFId": 103,
    "AreaType": "Country"
  },
  {
    "id": 113,
    "PooledFundName": "Aland Islands",
    "PooledFundNameAbbrv": "Aland Islands",
    "RegionName": "Northern Europe",
    "RegionNameArr": "Europe",
    "SubRegionName": "Northern Europe",
    "ContinentName": "Europe",
    "CountryCode": "ALA",
    "ISO2Code": "AX",
    "latitude": "#N/A",
    "longitude": "#N/A",
    "CBPFFundStatus":"",
    "CBPFId": "",
    "CERFId": 189,
    "AreaType": "Country"
  },
  {
    "id": 114,
    "PooledFundName": "Albania",
    "PooledFundNameAbbrv": "Albania",
    "RegionName": "Southern Europe",
    "RegionNameArr": "Europe",
    "SubRegionName": "Southern Europe",
    "ContinentName": "Europe",
    "CountryCode": "ALB",
    "ISO2Code": "AL",
    "latitude": 41.153332,
    "longitude": 20.168331,
    "CBPFFundStatus":"",
    "CBPFId": "",
    "CERFId": 208,
    "AreaType": "Country"
  },
  {
    "id": 115,
    "PooledFundName": "American Samoa",
    "PooledFundNameAbbrv": "American Samoa",
    "RegionName": "Polynesia",
    "RegionNameArr": "Polynesia",
    "SubRegionName": "Polynesia",
    "ContinentName": "Oceania",
    "CountryCode": "ASM",
    "ISO2Code": "AS",
    "latitude": -14.270972,
    "longitude": -170.132217,
    "CBPFFundStatus":"",
    "CBPFId": "",
    "CERFId": 248,
    "AreaType": "Country"
  },
  {
    "id": 116,
    "PooledFundName": "Andorra",
    "PooledFundNameAbbrv": "Andorra",
    "RegionName": "Southern Europe",
    "RegionNameArr": "Europe",
    "SubRegionName": "Southern Europe",
    "ContinentName": "Europe",
    "CountryCode": "AND",
    "ISO2Code": "AD",
    "latitude": 42.546245,
    "longitude": 1.601554,
    "CBPFFundStatus":"",
    "CBPFId": "",
    "CERFId": 209,
    "AreaType": "Country"
  },
  {
    "id": 117,
    "PooledFundName": "Anguilla",
    "PooledFundNameAbbrv": "Anguilla",
    "RegionName": "Latin America",
    "RegionNameArr": "Latin America",
    "SubRegionName": "Caribbean",
    "ContinentName": "Americas",
    "CountryCode": "AIA",
    "ISO2Code": "AI",
    "latitude": 18.220554,
    "longitude": -63.068615,
    "CBPFFundStatus":"",
    "CBPFId": "",
    "CERFId": 111,
    "AreaType": "Country"
  },
  {
    "id": 118,
    "PooledFundName": "Argentina",
    "PooledFundNameAbbrv": "Argentina",
    "RegionName": "Latin America",
    "RegionNameArr": "Latin America",
    "SubRegionName": "Caribbean",
    "ContinentName": "Americas",
    "CountryCode": "ARG",
    "ISO2Code": "AR",
    "latitude": -38.416097,
    "longitude": -63.616672,
    "CBPFFundStatus":"",
    "CBPFId": "",
    "CERFId": 138,
    "AreaType": "Country"
  },
  {
    "id": 119,
    "PooledFundName": "Aruba",
    "PooledFundNameAbbrv": "Aruba",
    "RegionName": "Latin America",
    "RegionNameArr": "Latin America",
    "SubRegionName": "Caribbean",
    "ContinentName": "Americas",
    "CountryCode": "ABW",
    "ISO2Code": "AW",
    "latitude": 12.52111,
    "longitude": -69.968338,
    "CBPFFundStatus":"",
    "CBPFId": "",
    "CERFId": 113,
    "AreaType": "Country"
  },
  {
    "id": 120,
    "PooledFundName": "Australia",
    "PooledFundNameAbbrv": "Australia",
    "RegionName": "Australia and New Zealand",
    "RegionNameArr": "Australia and New Zealand",
    "SubRegionName": "Australia and New Zealand",
    "ContinentName": "Oceania",
    "CountryCode": "AUS",
    "ISO2Code": "AU",
    "latitude": -25.274398,
    "longitude": 133.775136,
    "CBPFFundStatus":"",
    "CBPFId": "",
    "CERFId": 233,
    "AreaType": "Country"
  },
  {
    "id": 121,
    "PooledFundName": "Austria",
    "PooledFundNameAbbrv": "Austria",
    "RegionName": "Western Europe",
    "RegionNameArr": "Europe",
    "SubRegionName": "Western Europe",
    "ContinentName": "Europe",
    "CountryCode": "AUT",
    "ISO2Code": "AT",
    "latitude": 47.516231,
    "longitude": 14.550072,
    "CBPFFundStatus":"",
    "CBPFId": "",
    "CERFId": 224,
    "AreaType": "Country"
  },
  {
    "id": 122,
    "PooledFundName": "Bahrain",
    "PooledFundNameAbbrv": "Bahrain",
    "RegionName": "Western Asia",
    "RegionNameArr": "Middle East",
    "SubRegionName": "Western Asia",
    "ContinentName": "Asia",
    "CountryCode": "BHR",
    "ISO2Code": "BH",
    "latitude": 25.930414,
    "longitude": 50.637772,
    "CBPFFundStatus":"",
    "CBPFId": "",
    "CERFId": 170,
    "AreaType": "Country"
  },
  {
    "id": 123,
    "PooledFundName": "Barbados",
    "PooledFundNameAbbrv": "Barbados",
    "RegionName": "Latin America",
    "RegionNameArr": "Latin America",
    "SubRegionName": "Caribbean",
    "ContinentName": "Americas",
    "CountryCode": "BRB",
    "ISO2Code": "BB",
    "latitude": 13.193887,
    "longitude": -59.543198,
    "CBPFFundStatus":"",
    "CBPFId": "",
    "CERFId": 115,
    "AreaType": "Country"
  },
  {
    "id": 124,
    "PooledFundName": "Belarus",
    "PooledFundNameAbbrv": "Belarus",
    "RegionName": "Eastern Europe",
    "RegionNameArr": "Europe",
    "SubRegionName": "Eastern Europe",
    "ContinentName": "Europe",
    "CountryCode": "BLR",
    "ISO2Code": "BY",
    "latitude": 53.709807,
    "longitude": 27.953389,
    "CBPFFundStatus":"",
    "CBPFId": "",
    "CERFId": 179,
    "AreaType": "Country"
  },
  {
    "id": 125,
    "PooledFundName": "Belgium",
    "PooledFundNameAbbrv": "Belgium",
    "RegionName": "Western Europe",
    "RegionNameArr": "Europe",
    "SubRegionName": "Western Europe",
    "ContinentName": "Europe",
    "CountryCode": "BEL",
    "ISO2Code": "BE",
    "latitude": 50.503887,
    "longitude": 4.469936,
    "CBPFFundStatus":"",
    "CBPFId": "",
    "CERFId": 225,
    "AreaType": "Country"
  },
  {
    "id": 126,
    "PooledFundName": "Belize",
    "PooledFundNameAbbrv": "Belize",
    "RegionName": "Latin America",
    "RegionNameArr": "Latin America",
    "SubRegionName": "Caribbean",
    "ContinentName": "Americas",
    "CountryCode": "BLZ",
    "ISO2Code": "BZ",
    "latitude": 17.189877,
    "longitude": -88.49765,
    "CBPFFundStatus":"",
    "CBPFId": "",
    "CERFId": 135,
    "AreaType": "Country"
  },
  {
    "id": 127,
    "PooledFundName": "Bermuda",
    "PooledFundNameAbbrv": "Bermuda",
    "RegionName": "Northern Americas",
    "RegionNameArr": "Americas",
    "SubRegionName": "Northern Americas",
    "ContinentName": "Americas",
    "CountryCode": "BMU",
    "ISO2Code": "BM",
    "latitude": 32.321384,
    "longitude": -64.75737,
    "CBPFFundStatus":"",
    "CBPFId": "",
    "CERFId": 148,
    "AreaType": "Country"
  },
  {
    "id": 128,
    "PooledFundName": "Botswana",
    "PooledFundNameAbbrv": "Botswana",
    "RegionName": "Southern Africa",
    "RegionNameArr": "Africa",
    "SubRegionName": "Southern Africa",
    "ContinentName": "Africa",
    "CountryCode": "BWA",
    "ISO2Code": "BW",
    "latitude": -22.328474,
    "longitude": 24.684866,
    "CBPFFundStatus":"",
    "CBPFId": "",
    "CERFId": 107,
    "AreaType": "Country"
  },
  {
    "id": 129,
    "PooledFundName": "Bouvet Island",
    "PooledFundNameAbbrv": "Bouvet Island",
    "RegionName": "Northern Europe",
    "RegionNameArr": "Europe",
    "SubRegionName": "Northern Europe",
    "ContinentName": "Europe",
    "CountryCode": "BVT",
    "ISO2Code": "BV",
    "latitude": -54.423199,
    "longitude": 3.413194,
    "CBPFFundStatus":"",
    "CBPFId": "",
    "CERFId": 258,
    "AreaType": "Country"
  },
  {
    "id": 130,
    "PooledFundName": "British Indian Ocean Territory",
    "PooledFundNameAbbrv": "British Indian Ocean",
    "RegionName": "South-Eastern Asia",
    "RegionNameArr": "Asia",
    "SubRegionName": "South-Eastern Asia",
    "ContinentName": "Asia",
    "CountryCode": "IOT",
    "ISO2Code": "IO",
    "latitude": -6.343194,
    "longitude": 71.876519,
    "CBPFFundStatus":"",
    "CBPFId": "",
    "CERFId": 264,
    "AreaType": "Country"
  },
  {
    "id": 131,
    "PooledFundName": "British Virgin Islands",
    "PooledFundNameAbbrv": "British Virgin Islands",
    "RegionName": "Latin America",
    "RegionNameArr": "Latin America",
    "SubRegionName": "Caribbean",
    "ContinentName": "Americas",
    "CountryCode": "VGB",
    "ISO2Code": "VG",
    "latitude": 18.420695,
    "longitude": -64.639968,
    "CBPFFundStatus":"",
    "CBPFId": "",
    "CERFId": 117,
    "AreaType": "Country"
  },
  {
    "id": 132,
    "PooledFundName": "Brunei Darussalam",
    "PooledFundNameAbbrv": "Brunei",
    "RegionName": "South-Eastern Asia",
    "RegionNameArr": "Asia",
    "SubRegionName": "South-Eastern Asia",
    "ContinentName": "Asia",
    "CountryCode": "BRN",
    "ISO2Code": "BN",
    "latitude": 4.535277,
    "longitude": 114.727669,
    "CBPFFundStatus":"",
    "CBPFId": "",
    "CERFId": 162,
    "AreaType": "Country"
  },
  {
    "id": 133,
    "PooledFundName": "Bulgaria",
    "PooledFundNameAbbrv": "Bulgaria",
    "RegionName": "Eastern Europe",
    "RegionNameArr": "Europe",
    "SubRegionName": "Eastern Europe",
    "ContinentName": "Europe",
    "CountryCode": "BGR",
    "ISO2Code": "BG",
    "latitude": 42.733883,
    "longitude": 25.48583,
    "CBPFFundStatus":"",
    "CBPFId": "",
    "CERFId": 180,
    "AreaType": "Country"
  },
  {
    "id": 134,
    "PooledFundName": "Canada",
    "PooledFundNameAbbrv": "Canada",
    "RegionName": "Northern Americas",
    "RegionNameArr": "Americas",
    "SubRegionName": "Northern Americas",
    "ContinentName": "Americas",
    "CountryCode": "CAN",
    "ISO2Code": "CA",
    "latitude": 56.130366,
    "longitude": -106.346771,
    "CBPFFundStatus":"",
    "CBPFId": "",
    "CERFId": 149,
    "AreaType": "Country"
  },
  {
    "id": 135,
    "PooledFundName": "Cayman Islands",
    "PooledFundNameAbbrv": "Cayman Islands",
    "RegionName": "Latin America",
    "RegionNameArr": "Latin America",
    "SubRegionName": "Caribbean",
    "ContinentName": "Americas",
    "CountryCode": "CYM",
    "ISO2Code": "KY",
    "latitude": 19.513469,
    "longitude": -80.566956,
    "CBPFFundStatus":"",
    "CBPFId": "",
    "CERFId": 118,
    "AreaType": "Country"
  },
  {
    "id": 136,
    "PooledFundName": "Christmas Island",
    "PooledFundNameAbbrv": "Christmas Island",
    "RegionName": "Australia and New Zealand",
    "RegionNameArr": "Australia and New Zealand",
    "SubRegionName": "Australia and New Zealand",
    "ContinentName": "Oceania",
    "CountryCode": "CXR",
    "ISO2Code": "CX",
    "latitude": -10.447525,
    "longitude": 105.690449,
    "CBPFFundStatus":"",
    "CBPFId": "",
    "CERFId": 265,
    "AreaType": "Country"
  },
  {
    "id": 137,
    "PooledFundName": "Cocos (Keeling) Islands",
    "PooledFundNameAbbrv": "Cocos Islands",
    "RegionName": "Polynesia",
    "RegionNameArr": "Polynesia",
    "SubRegionName": "Polynesia",
    "ContinentName": "Oceania",
    "CountryCode": "CCK",
    "ISO2Code": "CC",
    "latitude": -12.164165,
    "longitude": 96.870956,
    "CBPFFundStatus":"",
    "CBPFId": "",
    "CERFId": 259,
    "AreaType": "Country"
  },
  {
    "id": 138,
    "PooledFundName": "Cook Islands",
    "PooledFundNameAbbrv": "Cook Islands",
    "RegionName": "Polynesia",
    "RegionNameArr": "Polynesia",
    "SubRegionName": "Polynesia",
    "ContinentName": "Oceania",
    "CountryCode": "COK",
    "ISO2Code": "CK",
    "latitude": -21.236736,
    "longitude": -159.777671,
    "CBPFFundStatus":"",
    "CBPFId": "",
    "CERFId": 249,
    "AreaType": "Country"
  },
  {
    "id": 139,
    "PooledFundName": "Costa Rica",
    "PooledFundNameAbbrv": "Costa Rica",
    "RegionName": "Latin America",
    "RegionNameArr": "Latin America",
    "SubRegionName": "Caribbean",
    "ContinentName": "Americas",
    "CountryCode": "CRI",
    "ISO2Code": "CR",
    "latitude": 9.748917,
    "longitude": -83.753428,
    "CBPFFundStatus":"",
    "CBPFId": "",
    "CERFId": 136,
    "AreaType": "Country"
  },
  {
    "id": 140,
    "PooledFundName": "Croatia",
    "PooledFundNameAbbrv": "Croatia",
    "RegionName": "Southern Europe",
    "RegionNameArr": "Europe",
    "SubRegionName": "Southern Europe",
    "ContinentName": "Europe",
    "CountryCode": "HRV",
    "ISO2Code": "HR",
    "latitude": 45.1,
    "longitude": 15.2,
    "CBPFFundStatus":"",
    "CBPFId": "",
    "CERFId": 211,
    "AreaType": "Country"
  },
  {
    "id": 141,
    "PooledFundName": "Cyprus",
    "PooledFundNameAbbrv": "Cyprus",
    "RegionName": "Western Asia",
    "RegionNameArr": "Middle East",
    "SubRegionName": "Western Asia",
    "ContinentName": "Asia",
    "CountryCode": "CYP",
    "ISO2Code": "CY",
    "latitude": 35.126413,
    "longitude": 33.429859,
    "CBPFFundStatus":"",
    "CBPFId": "",
    "CERFId": 171,
    "AreaType": "Country"
  },
  {
    "id": 142,
    "PooledFundName": "Czech Republic",
    "PooledFundNameAbbrv": "Czech Republic",
    "RegionName": "Eastern Europe",
    "RegionNameArr": "Europe",
    "SubRegionName": "Eastern Europe",
    "ContinentName": "Europe",
    "CountryCode": "CZE",
    "ISO2Code": "CZ",
    "latitude": 49.817492,
    "longitude": 15.472962,
    "CBPFFundStatus":"",
    "CBPFId": "",
    "CERFId": 181,
    "AreaType": "Country"
  },
  {
    "id": 143,
    "PooledFundName": "Denmark",
    "PooledFundNameAbbrv": "Denmark",
    "RegionName": "Northern Europe",
    "RegionNameArr": "Europe",
    "SubRegionName": "Northern Europe",
    "ContinentName": "Europe",
    "CountryCode": "DNK",
    "ISO2Code": "DK",
    "latitude": 56.26392,
    "longitude": 9.501785,
    "CBPFFundStatus":"",
    "CBPFId": "",
    "CERFId": 191,
    "AreaType": "Country"
  },
  {
    "id": 144,
    "PooledFundName": "Estonia",
    "PooledFundNameAbbrv": "Estonia",
    "RegionName": "Northern Europe",
    "RegionNameArr": "Europe",
    "SubRegionName": "Northern Europe",
    "ContinentName": "Europe",
    "CountryCode": "EST",
    "ISO2Code": "EE",
    "latitude": 58.595272,
    "longitude": 25.013607,
    "CBPFFundStatus":"",
    "CBPFId": "",
    "CERFId": 192,
    "AreaType": "Country"
  },
  {
    "id": 145,
    "PooledFundName": "Falkland Islands (Malvinas)",
    "PooledFundNameAbbrv": "Falkland Islands",
    "RegionName": "Latin America",
    "RegionNameArr": "Latin America",
    "SubRegionName": "Caribbean",
    "ContinentName": "Americas",
    "CountryCode": "FLK",
    "ISO2Code": "FK",
    "latitude": -51.796253,
    "longitude": -59.523613,
    "CBPFFundStatus":"",
    "CBPFId": "",
    "CERFId": 141,
    "AreaType": "Country"
  },
  {
    "id": 146,
    "PooledFundName": "Faroe Islands",
    "PooledFundNameAbbrv": "Faroe Islands",
    "RegionName": "Northern Europe",
    "RegionNameArr": "Europe",
    "SubRegionName": "Northern Europe",
    "ContinentName": "Europe",
    "CountryCode": "FRO",
    "ISO2Code": "FO",
    "latitude": 61.892635,
    "longitude": -6.911806,
    "CBPFFundStatus":"",
    "CBPFId": "",
    "CERFId": 194,
    "AreaType": "Country"
  },
  {
    "id": 147,
    "PooledFundName": "Federated States of Micronesia",
    "PooledFundNameAbbrv": "Micronesia",
    "RegionName": "Micronesia",
    "RegionNameArr": "Micronesia",
    "SubRegionName": "Micronesia",
    "ContinentName": "Oceania",
    "CountryCode": "FSM",
    "ISO2Code": "FM",
    "latitude": 7.425554,
    "longitude": 150.550812,
    "CBPFFundStatus":"",
    "CBPFId": "",
    "CERFId": 244,
    "AreaType": "Country"
  },
  {
    "id": 148,
    "PooledFundName": "Finland",
    "PooledFundNameAbbrv": "Finland",
    "RegionName": "Northern Europe",
    "RegionNameArr": "Europe",
    "SubRegionName": "Northern Europe",
    "ContinentName": "Europe",
    "CountryCode": "FIN",
    "ISO2Code": "FI",
    "latitude": 61.92411,
    "longitude": 25.748151,
    "CBPFFundStatus":"",
    "CBPFId": "",
    "CERFId": 195,
    "AreaType": "Country"
  },
  {
    "id": 149,
    "PooledFundName": "former Yugoslav Republic of Macedonia",
    "PooledFundNameAbbrv": "Macedonia",
    "RegionName": "Southern Europe",
    "RegionNameArr": "Europe",
    "SubRegionName": "Southern Europe",
    "ContinentName": "Europe",
    "CountryCode": "MKD",
    "ISO2Code": "MK",
    "latitude": 41.608635,
    "longitude": 21.745275,
    "CBPFFundStatus":"",
    "CBPFId": "",
    "CERFId": 223,
    "AreaType": "Country"
  },
  {
    "id": 150,
    "PooledFundName": "France",
    "PooledFundNameAbbrv": "France",
    "RegionName": "Western Europe",
    "RegionNameArr": "Europe",
    "SubRegionName": "Western Europe",
    "ContinentName": "Europe",
    "CountryCode": "FRA",
    "ISO2Code": "FR",
    "latitude": 46.227638,
    "longitude": 2.213749,
    "CBPFFundStatus":"",
    "CBPFId": "",
    "CERFId": 226,
    "AreaType": "Country"
  },
  {
    "id": 151,
    "PooledFundName": "French Guiana",
    "PooledFundNameAbbrv": "French Guiana",
    "RegionName": "Latin America",
    "RegionNameArr": "Latin America",
    "SubRegionName": "Caribbean",
    "ContinentName": "Americas",
    "CountryCode": "GUF",
    "ISO2Code": "GF",
    "latitude": 3.933889,
    "longitude": -53.125782,
    "CBPFFundStatus":"",
    "CBPFId": "",
    "CERFId": 142,
    "AreaType": "Country"
  },
  {
    "id": 152,
    "PooledFundName": "French Polynesia",
    "PooledFundNameAbbrv": "French Polynesia",
    "RegionName": "Polynesia",
    "RegionNameArr": "Polynesia",
    "SubRegionName": "Polynesia",
    "ContinentName": "Oceania",
    "CountryCode": "PYF",
    "ISO2Code": "PF",
    "latitude": -17.679742,
    "longitude": -149.406843,
    "CBPFFundStatus":"",
    "CBPFId": "",
    "CERFId": 250,
    "AreaType": "Country"
  },
  {
    "id": 153,
    "PooledFundName": "Gabon",
    "PooledFundNameAbbrv": "Gabon",
    "RegionName": "Middle Africa",
    "RegionNameArr": "Africa",
    "SubRegionName": "Middle Africa",
    "ContinentName": "Africa",
    "CountryCode": "GAB",
    "ISO2Code": "GA",
    "latitude": -0.803689,
    "longitude": 11.609444,
    "CBPFFundStatus":"",
    "CBPFId": "",
    "CERFId": 104,
    "AreaType": "Country"
  },
  {
    "id": 154,
    "PooledFundName": "Germany",
    "PooledFundNameAbbrv": "Germany",
    "RegionName": "Western Europe",
    "RegionNameArr": "Europe",
    "SubRegionName": "Western Europe",
    "ContinentName": "Europe",
    "CountryCode": "DEU",
    "ISO2Code": "DE",
    "latitude": 51.165691,
    "longitude": 10.451526,
    "CBPFFundStatus":"",
    "CBPFId": "",
    "CERFId": 227,
    "AreaType": "Country"
  },
  {
    "id": 155,
    "PooledFundName": "Gibraltar",
    "PooledFundNameAbbrv": "Gibraltar",
    "RegionName": "Southern Europe",
    "RegionNameArr": "Europe",
    "SubRegionName": "Southern Europe",
    "ContinentName": "Europe",
    "CountryCode": "GIB",
    "ISO2Code": "GI",
    "latitude": 36.137741,
    "longitude": -5.345374,
    "CBPFFundStatus":"",
    "CBPFId": "",
    "CERFId": 212,
    "AreaType": "Country"
  },
  {
    "id": 156,
    "PooledFundName": "Greece",
    "PooledFundNameAbbrv": "Greece",
    "RegionName": "Southern Europe",
    "RegionNameArr": "Europe",
    "SubRegionName": "Southern Europe",
    "ContinentName": "Europe",
    "CountryCode": "GRC",
    "ISO2Code": "GR",
    "latitude": 39.074208,
    "longitude": 21.824312,
    "CBPFFundStatus":"",
    "CBPFId": "",
    "CERFId": 213,
    "AreaType": "Country"
  },
  {
    "id": 157,
    "PooledFundName": "Greenland",
    "PooledFundNameAbbrv": "Greenland",
    "RegionName": "Northern Americas",
    "RegionNameArr": "Americas",
    "SubRegionName": "Northern Americas",
    "ContinentName": "Americas",
    "CountryCode": "GRL",
    "ISO2Code": "GL",
    "latitude": 71.706936,
    "longitude": -42.604303,
    "CBPFFundStatus":"",
    "CBPFId": "",
    "CERFId": 150,
    "AreaType": "Country"
  },
  {
    "id": 158,
    "PooledFundName": "Grenada",
    "PooledFundNameAbbrv": "Grenada",
    "RegionName": "Latin America",
    "RegionNameArr": "Latin America",
    "SubRegionName": "Caribbean",
    "ContinentName": "Americas",
    "CountryCode": "GRD",
    "ISO2Code": "GD",
    "latitude": 12.262776,
    "longitude": -61.604171,
    "CBPFFundStatus":"",
    "CBPFId": "",
    "CERFId": 121,
    "AreaType": "Country"
  },
  {
    "id": 159,
    "PooledFundName": "Guadeloupe",
    "PooledFundNameAbbrv": "Guadeloupe",
    "RegionName": "Latin America",
    "RegionNameArr": "Latin America",
    "SubRegionName": "Caribbean",
    "ContinentName": "Americas",
    "CountryCode": "GLP",
    "ISO2Code": "GP",
    "latitude": 16.995971,
    "longitude": -62.067641,
    "CBPFFundStatus":"",
    "CBPFId": "",
    "CERFId": 122,
    "AreaType": "Country"
  },
  {
    "id": 160,
    "PooledFundName": "Guam",
    "PooledFundNameAbbrv": "Guam",
    "RegionName": "Micronesia",
    "RegionNameArr": "Micronesia",
    "SubRegionName": "Micronesia",
    "ContinentName": "Oceania",
    "CountryCode": "GUM",
    "ISO2Code": "GU",
    "latitude": 13.444304,
    "longitude": 144.793731,
    "CBPFFundStatus":"",
    "CBPFId": "",
    "CERFId": 241,
    "AreaType": "Country"
  },
  {
    "id": 161,
    "PooledFundName": "Guernsey",
    "PooledFundNameAbbrv": "Guernsey",
    "RegionName": "Northern Europe",
    "RegionNameArr": "Europe",
    "SubRegionName": "Northern Europe",
    "ContinentName": "Europe",
    "CountryCode": "GGY",
    "ISO2Code": "GG",
    "latitude": 49.465691,
    "longitude": -2.585278,
    "CBPFFundStatus":"",
    "CBPFId": "",
    "CERFId": 196,
    "AreaType": "Country"
  },
  {
    "id": 162,
    "PooledFundName": "Guyana",
    "PooledFundNameAbbrv": "Guyana",
    "RegionName": "Latin America",
    "RegionNameArr": "Latin America",
    "SubRegionName": "Caribbean",
    "ContinentName": "Americas",
    "CountryCode": "GUY",
    "ISO2Code": "GY",
    "latitude": 4.860416,
    "longitude": -58.93018,
    "CBPFFundStatus":"",
    "CBPFId": "",
    "CERFId": 143,
    "AreaType": "Country"
  },
  {
    "id": 163,
    "PooledFundName": "Holy See (Vatican City State)",
    "PooledFundNameAbbrv": "Holy See",
    "RegionName": "Southern Europe",
    "RegionNameArr": "Europe",
    "SubRegionName": "Southern Europe",
    "ContinentName": "Europe",
    "CountryCode": "VAT",
    "ISO2Code": "VA",
    "latitude": 41.902916,
    "longitude": 12.453389,
    "CBPFFundStatus":"",
    "CBPFId": "",
    "CERFId": 214,
    "AreaType": "Country"
  },
  {
    "id": 164,
    "PooledFundName": "Hong Kong",
    "PooledFundNameAbbrv": "Hong Kong",
    "RegionName": "Eastern Asia",
    "RegionNameArr": "Asia",
    "SubRegionName": "Eastern Asia",
    "ContinentName": "Asia",
    "CountryCode": "HKG",
    "ISO2Code": "HK",
    "latitude": 22.396428,
    "longitude": 114.109497,
    "CBPFFundStatus":"",
    "CBPFId": "",
    "CERFId": 156,
    "AreaType": "Country"
  },
  {
    "id": 165,
    "PooledFundName": "Hungary",
    "PooledFundNameAbbrv": "Hungary",
    "RegionName": "Eastern Europe",
    "RegionNameArr": "Europe",
    "SubRegionName": "Eastern Europe",
    "ContinentName": "Europe",
    "CountryCode": "HUN",
    "ISO2Code": "HU",
    "latitude": 47.162494,
    "longitude": 19.503304,
    "CBPFFundStatus":"",
    "CBPFId": "",
    "CERFId": 182,
    "AreaType": "Country"
  },
  {
    "id": 166,
    "PooledFundName": "Iceland",
    "PooledFundNameAbbrv": "Iceland",
    "RegionName": "Northern Europe",
    "RegionNameArr": "Europe",
    "SubRegionName": "Northern Europe",
    "ContinentName": "Europe",
    "CountryCode": "ISL",
    "ISO2Code": "IS",
    "latitude": 64.963051,
    "longitude": -19.020835,
    "CBPFFundStatus":"",
    "CBPFId": "",
    "CERFId": 197,
    "AreaType": "Country"
  },
  {
    "id": 167,
    "PooledFundName": "Ireland",
    "PooledFundNameAbbrv": "Ireland",
    "RegionName": "Northern Europe",
    "RegionNameArr": "Europe",
    "SubRegionName": "Northern Europe",
    "ContinentName": "Europe",
    "CountryCode": "IRL",
    "ISO2Code": "IE",
    "latitude": 53.41291,
    "longitude": -8.24389,
    "CBPFFundStatus":"",
    "CBPFId": "",
    "CERFId": 198,
    "AreaType": "Country"
  },
  {
    "id": 168,
    "PooledFundName": "Isle of Man",
    "PooledFundNameAbbrv": "Isle of Man",
    "RegionName": "Northern Europe",
    "RegionNameArr": "Europe",
    "SubRegionName": "Northern Europe",
    "ContinentName": "Europe",
    "CountryCode": "IMN",
    "ISO2Code": "IM",
    "latitude": 54.236107,
    "longitude": -4.548056,
    "CBPFFundStatus":"",
    "CBPFId": "",
    "CERFId": 199,
    "AreaType": "Country"
  },
  {
    "id": 169,
    "PooledFundName": "Israel",
    "PooledFundNameAbbrv": "Israel",
    "RegionName": "Western Asia",
    "RegionNameArr": "Middle East",
    "SubRegionName": "Western Asia",
    "ContinentName": "Asia",
    "CountryCode": "ISR",
    "ISO2Code": "IL",
    "latitude": 31.046051,
    "longitude": 34.851612,
    "CBPFFundStatus":"",
    "CBPFId": "",
    "CERFId": 172,
    "AreaType": "Country"
  },
  {
    "id": 170,
    "PooledFundName": "Italy",
    "PooledFundNameAbbrv": "Italy",
    "RegionName": "Southern Europe",
    "RegionNameArr": "Europe",
    "SubRegionName": "Southern Europe",
    "ContinentName": "Europe",
    "CountryCode": "ITA",
    "ISO2Code": "IT",
    "latitude": 41.87194,
    "longitude": 12.56738,
    "CBPFFundStatus":"",
    "CBPFId": "",
    "CERFId": 215,
    "AreaType": "Country"
  },
  {
    "id": 171,
    "PooledFundName": "Jamaica",
    "PooledFundNameAbbrv": "Jamaica",
    "RegionName": "Latin America",
    "RegionNameArr": "Latin America",
    "SubRegionName": "Caribbean",
    "ContinentName": "Americas",
    "CountryCode": "JAM",
    "ISO2Code": "JM",
    "latitude": 18.109581,
    "longitude": -77.297508,
    "CBPFFundStatus":"",
    "CBPFId": "",
    "CERFId": 46,
    "AreaType": "Country"
  },
  {
    "id": 172,
    "PooledFundName": "Japan",
    "PooledFundNameAbbrv": "Japan",
    "RegionName": "Eastern Asia",
    "RegionNameArr": "Asia",
    "SubRegionName": "Eastern Asia",
    "ContinentName": "Asia",
    "CountryCode": "JPN",
    "ISO2Code": "JP",
    "latitude": 36.204824,
    "longitude": 138.252924,
    "CBPFFundStatus":"",
    "CBPFId": "",
    "CERFId": 158,
    "AreaType": "Country"
  },
  {
    "id": 173,
    "PooledFundName": "Jersey",
    "PooledFundNameAbbrv": "Jersey",
    "RegionName": "Northern Europe",
    "RegionNameArr": "Europe",
    "SubRegionName": "Northern Europe",
    "ContinentName": "Europe",
    "CountryCode": "JEY",
    "ISO2Code": "JE",
    "latitude": 49.214439,
    "longitude": -2.13125,
    "CBPFFundStatus":"",
    "CBPFId": "",
    "CERFId": 200,
    "AreaType": "Country"
  },
  {
    "id": 174,
    "PooledFundName": "Kazakhstan",
    "PooledFundNameAbbrv": "Kazakhstan",
    "RegionName": "Central Asia",
    "RegionNameArr": "Asia",
    "SubRegionName": "Central Asia",
    "ContinentName": "Asia",
    "CountryCode": "KAZ",
    "ISO2Code": "KZ",
    "latitude": 48.019573,
    "longitude": 66.923684,
    "CBPFFundStatus":"",
    "CBPFId": "",
    "CERFId": 153,
    "AreaType": "Country"
  },
  {
    "id": 175,
    "PooledFundName": "Kiribati",
    "PooledFundNameAbbrv": "Kiribati",
    "RegionName": "Micronesia",
    "RegionNameArr": "Micronesia",
    "SubRegionName": "Micronesia",
    "ContinentName": "Oceania",
    "CountryCode": "KIR",
    "ISO2Code": "KI",
    "latitude": -3.370417,
    "longitude": -168.734039,
    "CBPFFundStatus":"",
    "CBPFId": "",
    "CERFId": 242,
    "AreaType": "Country"
  },
  {
    "id": 176,
    "PooledFundName": "Kuwait",
    "PooledFundNameAbbrv": "Kuwait",
    "RegionName": "Western Asia",
    "RegionNameArr": "Middle East",
    "SubRegionName": "Western Asia",
    "ContinentName": "Asia",
    "CountryCode": "KWT",
    "ISO2Code": "KW",
    "latitude": 29.31166,
    "longitude": 47.481766,
    "CBPFFundStatus":"",
    "CBPFId": "",
    "CERFId": 173,
    "AreaType": "Country"
  },
  {
    "id": 177,
    "PooledFundName": "Latvia",
    "PooledFundNameAbbrv": "Latvia",
    "RegionName": "Northern Europe",
    "RegionNameArr": "Europe",
    "SubRegionName": "Northern Europe",
    "ContinentName": "Europe",
    "CountryCode": "LVA",
    "ISO2Code": "LV",
    "latitude": 56.879635,
    "longitude": 24.603189,
    "CBPFFundStatus":"",
    "CBPFId": "",
    "CERFId": 201,
    "AreaType": "Country"
  },
  {
    "id": 178,
    "PooledFundName": "Liechtenstein",
    "PooledFundNameAbbrv": "Liechtenstein",
    "RegionName": "Western Europe",
    "RegionNameArr": "Europe",
    "SubRegionName": "Western Europe",
    "ContinentName": "Europe",
    "CountryCode": "LIE",
    "ISO2Code": "LI",
    "latitude": 47.166,
    "longitude": 9.555373,
    "CBPFFundStatus":"",
    "CBPFId": "",
    "CERFId": 228,
    "AreaType": "Country"
  },
  {
    "id": 179,
    "PooledFundName": "Lithuania",
    "PooledFundNameAbbrv": "Lithuania",
    "RegionName": "Northern Europe",
    "RegionNameArr": "Europe",
    "SubRegionName": "Northern Europe",
    "ContinentName": "Europe",
    "CountryCode": "LTU",
    "ISO2Code": "LT",
    "latitude": 55.169438,
    "longitude": 23.881275,
    "CBPFFundStatus":"",
    "CBPFId": "",
    "CERFId": 202,
    "AreaType": "Country"
  },
  {
    "id": 180,
    "PooledFundName": "Luxembourg",
    "PooledFundNameAbbrv": "Luxembourg",
    "RegionName": "Western Europe",
    "RegionNameArr": "Europe",
    "SubRegionName": "Western Europe",
    "ContinentName": "Europe",
    "CountryCode": "LUX",
    "ISO2Code": "LU",
    "latitude": 49.815273,
    "longitude": 6.129583,
    "CBPFFundStatus":"",
    "CBPFId": "",
    "CERFId": 229,
    "AreaType": "Country"
  },
  {
    "id": 181,
    "PooledFundName": "Macao",
    "PooledFundNameAbbrv": "Macau",
    "RegionName": "Eastern Asia",
    "RegionNameArr": "Asia",
    "SubRegionName": "Eastern Asia",
    "ContinentName": "Asia",
    "CountryCode": "MAC",
    "ISO2Code": "MO",
    "latitude": 22.198745,
    "longitude": 113.543873,
    "CBPFFundStatus":"",
    "CBPFId": "",
    "CERFId": 157,
    "AreaType": "Country"
  },
  {
    "id": 182,
    "PooledFundName": "Malaysia",
    "PooledFundNameAbbrv": "Malaysia",
    "RegionName": "South-Eastern Asia",
    "RegionNameArr": "Asia",
    "SubRegionName": "South-Eastern Asia",
    "ContinentName": "Asia",
    "CountryCode": "MYS",
    "ISO2Code": "MY",
    "latitude": 4.210484,
    "longitude": 101.975766,
    "CBPFFundStatus":"",
    "CBPFId": "",
    "CERFId": 164,
    "AreaType": "Country"
  },
  {
    "id": 183,
    "PooledFundName": "Maldives",
    "PooledFundNameAbbrv": "Maldives",
    "RegionName": "Southern Asia",
    "RegionNameArr": "Asia",
    "SubRegionName": "Southern Asia",
    "ContinentName": "Asia",
    "CountryCode": "MDV",
    "ISO2Code": "MV",
    "latitude": 3.202778,
    "longitude": 73.22068,
    "CBPFFundStatus":"",
    "CBPFId": "",
    "CERFId": 161,
    "AreaType": "Country"
  },
  {
    "id": 184,
    "PooledFundName": "Malta",
    "PooledFundNameAbbrv": "Malta",
    "RegionName": "Southern Europe",
    "RegionNameArr": "Europe",
    "SubRegionName": "Southern Europe",
    "ContinentName": "Europe",
    "CountryCode": "MLT",
    "ISO2Code": "MT",
    "latitude": 35.937496,
    "longitude": 14.375416,
    "CBPFFundStatus":"",
    "CBPFId": "",
    "CERFId": 216,
    "AreaType": "Country"
  },
  {
    "id": 185,
    "PooledFundName": "Martinique",
    "PooledFundNameAbbrv": "Martinique",
    "RegionName": "Latin America",
    "RegionNameArr": "Latin America",
    "SubRegionName": "Caribbean",
    "ContinentName": "Americas",
    "CountryCode": "MTQ",
    "ISO2Code": "MQ",
    "latitude": 14.641528,
    "longitude": -61.024174,
    "CBPFFundStatus":"",
    "CBPFId": "",
    "CERFId": 123,
    "AreaType": "Country"
  },
  {
    "id": 186,
    "PooledFundName": "Mauritius",
    "PooledFundNameAbbrv": "Mauritius",
    "RegionName": "Eastern Africa",
    "RegionNameArr": "Africa",
    "SubRegionName": "Eastern Africa",
    "ContinentName": "Africa",
    "CountryCode": "MUS",
    "ISO2Code": "MU",
    "latitude": -20.348404,
    "longitude": 57.552152,
    "CBPFFundStatus":"",
    "CBPFId": "",
    "CERFId": 58,
    "AreaType": "Country"
  },
  {
    "id": 187,
    "PooledFundName": "Mayotte",
    "PooledFundNameAbbrv": "Mayotte",
    "RegionName": "Eastern Africa",
    "RegionNameArr": "Africa",
    "SubRegionName": "Eastern Africa",
    "ContinentName": "Africa",
    "CountryCode": "MYT",
    "ISO2Code": "YT",
    "latitude": -12.8275,
    "longitude": 45.166244,
    "CBPFFundStatus":"",
    "CBPFId": "",
    "CERFId": 100,
    "AreaType": "Country"
  },
  {
    "id": 188,
    "PooledFundName": "Monaco",
    "PooledFundNameAbbrv": "Monaco",
    "RegionName": "Western Europe",
    "RegionNameArr": "Europe",
    "SubRegionName": "Western Europe",
    "ContinentName": "Europe",
    "CountryCode": "MCO",
    "ISO2Code": "MC",
    "latitude": 43.750298,
    "longitude": 7.412841,
    "CBPFFundStatus":"",
    "CBPFId": "",
    "CERFId": 230,
    "AreaType": "Country"
  },
  {
    "id": 189,
    "PooledFundName": "Montenegro",
    "PooledFundNameAbbrv": "Montenegro",
    "RegionName": "Western Europe",
    "RegionNameArr": "Europe",
    "SubRegionName": "Western Europe",
    "ContinentName": "Europe",
    "CountryCode": "MNE",
    "ISO2Code": "ME",
    "latitude": 42.708678,
    "longitude": 19.37439,
    "CBPFFundStatus":"",
    "CBPFId": "",
    "CERFId": 266,
    "AreaType": "Country"
  },
  {
    "id": 190,
    "PooledFundName": "Montserrat",
    "PooledFundNameAbbrv": "Montserrat",
    "RegionName": "Latin America",
    "RegionNameArr": "Latin America",
    "SubRegionName": "Caribbean",
    "ContinentName": "Americas",
    "CountryCode": "MSR",
    "ISO2Code": "MS",
    "latitude": 16.742498,
    "longitude": -62.187366,
    "CBPFFundStatus":"",
    "CBPFId": "",
    "CERFId": 124,
    "AreaType": "Country"
  },
  {
    "id": 191,
    "PooledFundName": "Morocco",
    "PooledFundNameAbbrv": "Morocco",
    "RegionName": "Latin America",
    "RegionNameArr": "Latin America",
    "SubRegionName": "Caribbean",
    "ContinentName": "Americas",
    "CountryCode": "MAR",
    "ISO2Code": "MA",
    "latitude": 31.791702,
    "longitude": -7.09262,
    "CBPFFundStatus":"",
    "CBPFId": "",
    "CERFId": 260,
    "AreaType": "Country"
  },
  {
    "id": 192,
    "PooledFundName": "Nauru",
    "PooledFundNameAbbrv": "Nauru",
    "RegionName": "Micronesia",
    "RegionNameArr": "Micronesia",
    "SubRegionName": "Micronesia",
    "ContinentName": "Oceania",
    "CountryCode": "NRU",
    "ISO2Code": "NR",
    "latitude": -0.522778,
    "longitude": 166.931503,
    "CBPFFundStatus":"",
    "CBPFId": "",
    "CERFId": 245,
    "AreaType": "Country"
  },
  {
    "id": 193,
    "PooledFundName": "Netherlands",
    "PooledFundNameAbbrv": "Netherlands",
    "RegionName": "Western Europe",
    "RegionNameArr": "Europe",
    "SubRegionName": "Western Europe",
    "ContinentName": "Europe",
    "CountryCode": "NLD",
    "ISO2Code": "NL",
    "latitude": 52.132633,
    "longitude": 5.291266,
    "CBPFFundStatus":"",
    "CBPFId": "",
    "CERFId": 231,
    "AreaType": "Country"
  },
  {
    "id": 194,
    "PooledFundName": "Netherlands Antilles",
    "PooledFundNameAbbrv": "Netherlands Antilles",
    "RegionName": "Latin America",
    "RegionNameArr": "Latin America",
    "SubRegionName": "Caribbean",
    "ContinentName": "Americas",
    "CountryCode": "ANT",
    "ISO2Code": "AN",
    "latitude": 12.226079,
    "longitude": -69.060087,
    "CBPFFundStatus":"",
    "CBPFId": "",
    "CERFId": 261,
    "AreaType": "Country"
  },
  {
    "id": 195,
    "PooledFundName": "New Caledonia",
    "PooledFundNameAbbrv": "New Caledonia",
    "RegionName": "Melanesia",
    "RegionNameArr": "Asia",
    "SubRegionName": "Melanesia",
    "ContinentName": "Oceania",
    "CountryCode": "NCL",
    "ISO2Code": "NC",
    "latitude": -20.904305,
    "longitude": 165.618042,
    "CBPFFundStatus":"",
    "CBPFId": "",
    "CERFId": 237,
    "AreaType": "Country"
  },
  {
    "id": 196,
    "PooledFundName": "New Zealand",
    "PooledFundNameAbbrv": "New Zealand",
    "RegionName": "Australia and New Zealand",
    "RegionNameArr": "Australia and New Zealand",
    "SubRegionName": "Australia and New Zealand",
    "ContinentName": "Oceania",
    "CountryCode": "NZL",
    "ISO2Code": "NZ",
    "latitude": -40.900557,
    "longitude": 174.885971,
    "CBPFFundStatus":"",
    "CBPFId": "",
    "CERFId": 234,
    "AreaType": "Country"
  },
  {
    "id": 197,
    "PooledFundName": "Niue",
    "PooledFundNameAbbrv": "Niue",
    "RegionName": "Polynesia",
    "RegionNameArr": "Polynesia",
    "SubRegionName": "Polynesia",
    "ContinentName": "Oceania",
    "CountryCode": "NIU",
    "ISO2Code": "NU",
    "latitude": -19.054445,
    "longitude": -169.867233,
    "CBPFFundStatus":"",
    "CBPFId": "",
    "CERFId": 251,
    "AreaType": "Country"
  },
  {
    "id": 198,
    "PooledFundName": "Norfolk Island",
    "PooledFundNameAbbrv": "Norfolk Island",
    "RegionName": "Australia and New Zealand",
    "RegionNameArr": "Australia and New Zealand",
    "SubRegionName": "Australia and New Zealand",
    "ContinentName": "Oceania",
    "CountryCode": "NFK",
    "ISO2Code": "NF",
    "latitude": -29.040835,
    "longitude": 167.954712,
    "CBPFFundStatus":"",
    "CBPFId": "",
    "CERFId": 235,
    "AreaType": "Country"
  },
  {
    "id": 199,
    "PooledFundName": "Northern Mariana Islands",
    "PooledFundNameAbbrv": "Northern Mariana",
    "RegionName": "Micronesia",
    "RegionNameArr": "Micronesia",
    "SubRegionName": "Micronesia",
    "ContinentName": "Oceania",
    "CountryCode": "MNP",
    "ISO2Code": "MP",
    "latitude": 17.33083,
    "longitude": 145.38469,
    "CBPFFundStatus":"",
    "CBPFId": "",
    "CERFId": 246,
    "AreaType": "Country"
  },
  {
    "id": 200,
    "PooledFundName": "Norway",
    "PooledFundNameAbbrv": "Norway",
    "RegionName": "Northern Europe",
    "RegionNameArr": "Europe",
    "SubRegionName": "Northern Europe",
    "ContinentName": "Europe",
    "CountryCode": "NOR",
    "ISO2Code": "NO",
    "latitude": 60.472024,
    "longitude": 8.468946,
    "CBPFFundStatus":"",
    "CBPFId": "",
    "CERFId": 203,
    "AreaType": "Country"
  },
  {
    "id": 201,
    "PooledFundName": "Oman",
    "PooledFundNameAbbrv": "Oman",
    "RegionName": "Western Asia",
    "RegionNameArr": "Middle East",
    "SubRegionName": "Western Asia",
    "ContinentName": "Asia",
    "CountryCode": "OMN",
    "ISO2Code": "OM",
    "latitude": 21.512583,
    "longitude": 55.923255,
    "CBPFFundStatus":"",
    "CBPFId": "",
    "CERFId": 174,
    "AreaType": "Country"
  },
  {
    "id": 202,
    "PooledFundName": "Palau",
    "PooledFundNameAbbrv": "Palau",
    "RegionName": "Micronesia",
    "RegionNameArr": "Micronesia",
    "SubRegionName": "Micronesia",
    "ContinentName": "Oceania",
    "CountryCode": "PLW",
    "ISO2Code": "PW",
    "latitude": 7.51498,
    "longitude": 134.58252,
    "CBPFFundStatus":"",
    "CBPFId": "",
    "CERFId": 247,
    "AreaType": "Country"
  },
  {
    "id": 203,
    "PooledFundName": "Panama",
    "PooledFundNameAbbrv": "Panama",
    "RegionName": "Latin America",
    "RegionNameArr": "Latin America",
    "SubRegionName": "Caribbean",
    "ContinentName": "Americas",
    "CountryCode": "PAN",
    "ISO2Code": "PA",
    "latitude": 8.537981,
    "longitude": -80.782127,
    "CBPFFundStatus":"",
    "CBPFId": "",
    "CERFId": 137,
    "AreaType": "Country"
  },
  {
    "id": 204,
    "PooledFundName": "Pitcairn",
    "PooledFundNameAbbrv": "Pitcairn Island",
    "RegionName": "Polynesia",
    "RegionNameArr": "Polynesia",
    "SubRegionName": "Polynesia",
    "ContinentName": "Oceania",
    "CountryCode": "PCN",
    "ISO2Code": "PN",
    "latitude": -24.703615,
    "longitude": -127.439308,
    "CBPFFundStatus":"",
    "CBPFId": "",
    "CERFId": 252,
    "AreaType": "Country"
  },
  {
    "id": 205,
    "PooledFundName": "Poland",
    "PooledFundNameAbbrv": "Poland",
    "RegionName": "Eastern Europe",
    "RegionNameArr": "Europe",
    "SubRegionName": "Eastern Europe",
    "ContinentName": "Europe",
    "CountryCode": "POL",
    "ISO2Code": "PL",
    "latitude": 51.919438,
    "longitude": 19.145136,
    "CBPFFundStatus":"",
    "CBPFId": "",
    "CERFId": 183,
    "AreaType": "Country"
  },
  {
    "id": 206,
    "PooledFundName": "Portugal",
    "PooledFundNameAbbrv": "Portugal",
    "RegionName": "Southern Europe",
    "RegionNameArr": "Europe",
    "SubRegionName": "Southern Europe",
    "ContinentName": "Europe",
    "CountryCode": "PRT",
    "ISO2Code": "PT",
    "latitude": 39.399872,
    "longitude": -8.224454,
    "CBPFFundStatus":"",
    "CBPFId": "",
    "CERFId": 218,
    "AreaType": "Country"
  },
  {
    "id": 207,
    "PooledFundName": "Puerto Rico",
    "PooledFundNameAbbrv": "Puerto Rico",
    "RegionName": "Latin America",
    "RegionNameArr": "Latin America",
    "SubRegionName": "Caribbean",
    "ContinentName": "Americas",
    "CountryCode": "PRI",
    "ISO2Code": "PR",
    "latitude": 18.220833,
    "longitude": -66.590149,
    "CBPFFundStatus":"",
    "CBPFId": "",
    "CERFId": 125,
    "AreaType": "Country"
  },
  {
    "id": 208,
    "PooledFundName": "Qatar",
    "PooledFundNameAbbrv": "Qatar",
    "RegionName": "Western Asia",
    "RegionNameArr": "Middle East",
    "SubRegionName": "Western Asia",
    "ContinentName": "Asia",
    "CountryCode": "QAT",
    "ISO2Code": "QA",
    "latitude": 25.354826,
    "longitude": 51.183884,
    "CBPFFundStatus":"",
    "CBPFId": "",
    "CERFId": 175,
    "AreaType": "Country"
  },
  {
    "id": 209,
    "PooledFundName": "Republic of Korea",
    "PooledFundNameAbbrv": "Republic of Korea",
    "RegionName": "Eastern Asia",
    "RegionNameArr": "Asia",
    "SubRegionName": "Eastern Asia",
    "ContinentName": "Asia",
    "CountryCode": "KOR",
    "ISO2Code": "KR",
    "latitude": 35.907757,
    "longitude": 127.766922,
    "CBPFFundStatus":"",
    "CBPFId": "",
    "CERFId": 159,
    "AreaType": "Country"
  },
  {
    "id": 210,
    "PooledFundName": "Republic of Moldova",
    "PooledFundNameAbbrv": "Moldova",
    "RegionName": "Eastern Europe",
    "RegionNameArr": "Europe",
    "SubRegionName": "Eastern Europe",
    "ContinentName": "Europe",
    "CountryCode": "MDA",
    "ISO2Code": "MD",
    "latitude": 47.411631,
    "longitude": 28.369885,
    "CBPFFundStatus":"",
    "CBPFId": "",
    "CERFId": 184,
    "AreaType": "Country"
  },
  {
    "id": 211,
    "PooledFundName": "Reunion",
    "PooledFundNameAbbrv": "Reunion",
    "RegionName": "Eastern Africa",
    "RegionNameArr": "Africa",
    "SubRegionName": "Eastern Africa",
    "ContinentName": "Africa",
    "CountryCode": "REU",
    "ISO2Code": "RE",
    "latitude": -21.115141,
    "longitude": 55.536384,
    "CBPFFundStatus":"",
    "CBPFId": "",
    "CERFId": 101,
    "AreaType": "Country"
  },
  {
    "id": 212,
    "PooledFundName": "Romania",
    "PooledFundNameAbbrv": "Romania",
    "RegionName": "Eastern Europe",
    "RegionNameArr": "Europe",
    "SubRegionName": "Eastern Europe",
    "ContinentName": "Europe",
    "CountryCode": "ROU",
    "ISO2Code": "RO",
    "latitude": 45.943161,
    "longitude": 24.96676,
    "CBPFFundStatus":"",
    "CBPFId": "",
    "CERFId": 185,
    "AreaType": "Country"
  },
  {
    "id": 213,
    "PooledFundName": "Russian Federation",
    "PooledFundNameAbbrv": "Russia",
    "RegionName": "Eastern Europe",
    "RegionNameArr": "Europe",
    "SubRegionName": "Eastern Europe",
    "ContinentName": "Europe",
    "CountryCode": "RUS",
    "ISO2Code": "RU",
    "latitude": 61.52401,
    "longitude": 105.318756,
    "CBPFFundStatus":"",
    "CBPFId": "",
    "CERFId": 186,
    "AreaType": "Country"
  },
  {
    "id": 214,
    "PooledFundName": "Saint Helena",
    "PooledFundNameAbbrv": "St Helena",
    "RegionName": "Western Africa",
    "RegionNameArr": "Africa",
    "SubRegionName": "Western Africa",
    "ContinentName": "Africa",
    "CountryCode": "SHN",
    "ISO2Code": "SH",
    "latitude": -24.143474,
    "longitude": -10.030696,
    "CBPFFundStatus":"",
    "CBPFId": "",
    "CERFId": 109,
    "AreaType": "Country"
  },
  {
    "id": 215,
    "PooledFundName": "Saint Kitts and Nevis",
    "PooledFundNameAbbrv": "St Kitts Nevis",
    "RegionName": "Latin America",
    "RegionNameArr": "Latin America",
    "SubRegionName": "Caribbean",
    "ContinentName": "Americas",
    "CountryCode": "KNA",
    "ISO2Code": "KN",
    "latitude": 17.357822,
    "longitude": -62.782998,
    "CBPFFundStatus":"",
    "CBPFId": "",
    "CERFId": 127,
    "AreaType": "Country"
  },
  {
    "id": 216,
    "PooledFundName": "Saint Lucia",
    "PooledFundNameAbbrv": "St Lucia",
    "RegionName": "Latin America",
    "RegionNameArr": "Latin America",
    "SubRegionName": "Caribbean",
    "ContinentName": "Americas",
    "CountryCode": "LCA",
    "ISO2Code": "LC",
    "latitude": 13.909444,
    "longitude": -60.978893,
    "CBPFFundStatus":"",
    "CBPFId": "",
    "CERFId": 128,
    "AreaType": "Country"
  },
  {
    "id": 217,
    "PooledFundName": "Saint Pierre and Miquelon",
    "PooledFundNameAbbrv": "St Pierre Miquelon",
    "RegionName": "Northern Americas",
    "RegionNameArr": "Americas",
    "SubRegionName": "Northern Americas",
    "ContinentName": "Americas",
    "CountryCode": "SPM",
    "ISO2Code": "PM",
    "latitude": 46.941936,
    "longitude": -56.27111,
    "CBPFFundStatus":"",
    "CBPFId": "",
    "CERFId": 151,
    "AreaType": "Country"
  },
  {
    "id": 218,
    "PooledFundName": "Saint Vincent and the Grenadines",
    "PooledFundNameAbbrv": "St Vincent Grenadines",
    "RegionName": "Latin America",
    "RegionNameArr": "Latin America",
    "SubRegionName": "Caribbean",
    "ContinentName": "Americas",
    "CountryCode": "VCT",
    "ISO2Code": "VC",
    "latitude": 12.984305,
    "longitude": -61.287228,
    "CBPFFundStatus":"",
    "CBPFId": "",
    "CERFId": 130,
    "AreaType": "Country"
  },
  {
    "id": 219,
    "PooledFundName": "San Marino",
    "PooledFundNameAbbrv": "San Marino",
    "RegionName": "Southern Europe",
    "RegionNameArr": "Europe",
    "SubRegionName": "Southern Europe",
    "ContinentName": "Europe",
    "CountryCode": "SMR",
    "ISO2Code": "SM",
    "latitude": 43.94236,
    "longitude": 12.457777,
    "CBPFFundStatus":"",
    "CBPFId": "",
    "CERFId": 219,
    "AreaType": "Country"
  },
  {
    "id": 220,
    "PooledFundName": "Sao Tome and Principe",
    "PooledFundNameAbbrv": "Sao Tome and Principe",
    "RegionName": "Middle Africa",
    "RegionNameArr": "Africa",
    "SubRegionName": "Middle Africa",
    "ContinentName": "Africa",
    "CountryCode": "STP",
    "ISO2Code": "ST",
    "latitude": 0.18636,
    "longitude": 6.613081,
    "CBPFFundStatus":"",
    "CBPFId": "",
    "CERFId": 105,
    "AreaType": "Country"
  },
  {
    "id": 221,
    "PooledFundName": "Saudi Arabia",
    "PooledFundNameAbbrv": "Saudi Arabia",
    "RegionName": "Western Asia",
    "RegionNameArr": "Middle East",
    "SubRegionName": "Western Asia",
    "ContinentName": "Asia",
    "CountryCode": "SAU",
    "ISO2Code": "SA",
    "latitude": 23.885942,
    "longitude": 45.079162,
    "CBPFFundStatus":"",
    "CBPFId": "",
    "CERFId": 176,
    "AreaType": "Country"
  },
  {
    "id": 222,
    "PooledFundName": "Seychelles",
    "PooledFundNameAbbrv": "Seychelles",
    "RegionName": "Eastern Africa",
    "RegionNameArr": "Africa",
    "SubRegionName": "Eastern Africa",
    "ContinentName": "Africa",
    "CountryCode": "SYC",
    "ISO2Code": "SC",
    "latitude": -4.679574,
    "longitude": 55.491977,
    "CBPFFundStatus":"",
    "CBPFId": "",
    "CERFId": 102,
    "AreaType": "Country"
  },
  {
    "id": 223,
    "PooledFundName": "Singapore",
    "PooledFundNameAbbrv": "Singapore",
    "RegionName": "South-Eastern Asia",
    "RegionNameArr": "Asia",
    "SubRegionName": "South-Eastern Asia",
    "ContinentName": "Asia",
    "CountryCode": "SGP",
    "ISO2Code": "SG",
    "latitude": 1.352083,
    "longitude": 103.819836,
    "CBPFFundStatus":"",
    "CBPFId": "",
    "CERFId": 166,
    "AreaType": "Country"
  },
  {
    "id": 224,
    "PooledFundName": "Slovakia",
    "PooledFundNameAbbrv": "Slovakia",
    "RegionName": "Eastern Europe",
    "RegionNameArr": "Europe",
    "SubRegionName": "Eastern Europe",
    "ContinentName": "Europe",
    "CountryCode": "SVK",
    "ISO2Code": "SK",
    "latitude": 48.669026,
    "longitude": 19.699024,
    "CBPFFundStatus":"",
    "CBPFId": "",
    "CERFId": 187,
    "AreaType": "Country"
  },
  {
    "id": 225,
    "PooledFundName": "Slovenia",
    "PooledFundNameAbbrv": "Slovenia",
    "RegionName": "Southern Europe",
    "RegionNameArr": "Europe",
    "SubRegionName": "Southern Europe",
    "ContinentName": "Europe",
    "CountryCode": "SVN",
    "ISO2Code": "SI",
    "latitude": 46.151241,
    "longitude": 14.995463,
    "CBPFFundStatus":"",
    "CBPFId": "",
    "CERFId": 221,
    "AreaType": "Country"
  },
  {
    "id": 226,
    "PooledFundName": "South Africa",
    "PooledFundNameAbbrv": "South Africa",
    "RegionName": "Southern Africa",
    "RegionNameArr": "Africa",
    "SubRegionName": "Southern Africa",
    "ContinentName": "Africa",
    "CountryCode": "ZAF",
    "ISO2Code": "ZA",
    "latitude": -30.559482,
    "longitude": 22.937506,
    "CBPFFundStatus":"",
    "CBPFId": "",
    "CERFId": 270,
    "AreaType": "Regional"
  },
  {
    "id": 227,
    "PooledFundName": "Spain",
    "PooledFundNameAbbrv": "Spain",
    "RegionName": "Southern Europe",
    "RegionNameArr": "Europe",
    "SubRegionName": "Southern Europe",
    "ContinentName": "Europe",
    "CountryCode": "ESP",
    "ISO2Code": "ES",
    "latitude": 40.463667,
    "longitude": -3.74922,
    "CBPFFundStatus":"",
    "CBPFId": "",
    "CERFId": 222,
    "AreaType": "Country"
  },
  {
    "id": 228,
    "PooledFundName": "Suriname",
    "PooledFundNameAbbrv": "Suriname",
    "RegionName": "Latin America",
    "RegionNameArr": "Latin America",
    "SubRegionName": "Caribbean",
    "ContinentName": "Americas",
    "CountryCode": "SUR",
    "ISO2Code": "SR",
    "latitude": 3.919305,
    "longitude": -56.027783,
    "CBPFFundStatus":"",
    "CBPFId": "",
    "CERFId": 145,
    "AreaType": "Country"
  },
  {
    "id": 229,
    "PooledFundName": "Svalbard and Jan Mayen Islands",
    "PooledFundNameAbbrv": "Svalbard Islands",
    "RegionName": "Northern Europe",
    "RegionNameArr": "Europe",
    "SubRegionName": "Northern Europe",
    "ContinentName": "Europe",
    "CountryCode": "SJM",
    "ISO2Code": "SJ",
    "latitude": 77.553604,
    "longitude": 23.670272,
    "CBPFFundStatus":"",
    "CBPFId": "",
    "CERFId": 205,
    "AreaType": "Country"
  },
  {
    "id": 230,
    "PooledFundName": "Sweden",
    "PooledFundNameAbbrv": "Sweden",
    "RegionName": "Northern Europe",
    "RegionNameArr": "Europe",
    "SubRegionName": "Northern Europe",
    "ContinentName": "Europe",
    "CountryCode": "SWE",
    "ISO2Code": "SE",
    "latitude": 60.128161,
    "longitude": 18.643501,
    "CBPFFundStatus":"",
    "CBPFId": "",
    "CERFId": 206,
    "AreaType": "Country"
  },
  {
    "id": 231,
    "PooledFundName": "Switzerland",
    "PooledFundNameAbbrv": "Switzerland",
    "RegionName": "Western Europe",
    "RegionNameArr": "Europe",
    "SubRegionName": "Western Europe",
    "ContinentName": "Europe",
    "CountryCode": "CHE",
    "ISO2Code": "CH",
    "latitude": 46.818188,
    "longitude": 8.227512,
    "CBPFFundStatus":"",
    "CBPFId": "",
    "CERFId": 232,
    "AreaType": "Country"
  },
  {
    "id": 232,
    "PooledFundName": "Taiwan",
    "PooledFundNameAbbrv": "Taiwan",
    "RegionName": "Eastern Asia",
    "RegionNameArr": "Asia",
    "SubRegionName": "Eastern Asia",
    "ContinentName": "Asia",
    "CountryCode": "TWN",
    "ISO2Code": "TW",
    "latitude": 23.69781,
    "longitude": 120.960515,
    "CBPFFundStatus":"",
    "CBPFId": "",
    "CERFId": 262,
    "AreaType": "Country"
  },