[{
		"id": 1,
		"PooledFundName": "Afghanistan",
		"PooledFundNameAbbrv": "Afghanistan",
		"RegionName": "Southern Asia",
		"SubRegionName": "Southern Asia",
		"ContinentName": "Asia",
		"CountryCode": "AFG",
		"ISO2Code": "AF",
		"latitude": 33.93911,
		"longitude": 67.709953
	},{
		"id": 2,
		"PooledFundName": "Algeria",
		"PooledFundNameAbbrv": "Algeria",
		"RegionName": "Northern africa",
		"SubRegionName": "Northern africa",
		"ContinentName": "Africa",
		"CountryCode": "DZA",
		"ISO2Code": "DZ",
		"latitude": 28.033886,
		"longitude": 1.659626
	},{
		"id": 3,
		"PooledFundName": "Angola",
		"PooledFundNameAbbrv": "Angola",
		"RegionName": "Middle Africa",
		"SubRegionName": "Middle Africa",
		"ContinentName": "Africa",
		"CountryCode": "AGO",
		"ISO2Code": "AO",
		"latitude": -11.202692,
		"longitude": 17.873887
	},{
		"id": 4,
		"PooledFundName": "Antigua and Barbuda",
		"PooledFundNameAbbrv": "Antigua and Barbuda",
		"RegionName": "Latin America and the Caribbean",
		"SubRegionName": "Caribbean",
		"ContinentName": "Americas",
		"CountryCode": "ATG",
		"ISO2Code": "AG",
		"latitude": 17.060816,
		"longitude": -61.796428
	},{
		"id": 5,
		"PooledFundName": "Armenia",
		"PooledFundNameAbbrv": "Armenia",
		"RegionName": "Western Asia",
		"SubRegionName": "Western Asia",
		"ContinentName": "Asia",
		"CountryCode": "ARM",
		"ISO2Code": "AM",
		"latitude": 40.069099,
		"longitude": 45.038189
	},{
		"id": 6,
		"PooledFundName": "Bahamas",
		"PooledFundNameAbbrv": "Bahamas",
		"RegionName": "Latin America and the Caribbean",
		"SubRegionName": "Caribbean",
		"ContinentName": "Americas",
		"CountryCode": "BHS",
		"ISO2Code": "BS",
		"latitude": 25.03428,
		"longitude": -77.39628
	},{
		"id": 7,
		"PooledFundName": "Bangladesh",
		"PooledFundNameAbbrv": "Bangladesh",
		"RegionName": "Southern Asia",
		"SubRegionName": "Southern Asia",
		"ContinentName": "Asia",
		"CountryCode": "BGD",
		"ISO2Code": "BD",
		"latitude": 23.684994,
		"longitude": 90.356331
	},{
		"id": 8,
		"PooledFundName": "Benin",
		"PooledFundNameAbbrv": "Benin",
		"RegionName": "Western Africa",
		"SubRegionName": "Western Africa",
		"ContinentName": "Africa",
		"CountryCode": "BEN",
		"ISO2Code": "BJ",
		"latitude": 9.30769,
		"longitude": 2.315834
	},{
		"id": 9,
		"PooledFundName": "Bhutan",
		"PooledFundNameAbbrv": "Bhutan",
		"RegionName": "Southern Asia",
		"SubRegionName": "Southern Asia",
		"ContinentName": "Asia",
		"CountryCode": "BTN",
		"ISO2Code": "BT",
		"latitude": 27.514162,
		"longitude": 90.433601
	},{
		"id": 10,
		"PooledFundName": "Bolivia",
		"PooledFundNameAbbrv": "Bolivia",
		"RegionName": "Latin America and the Caribbean",
		"SubRegionName": "South America",
		"ContinentName": "Americas",
		"CountryCode": "BOL",
		"ISO2Code": "BO",
		"latitude": -16.290154,
		"longitude": -63.588653
	},{
		"id": 11,
		"PooledFundName": "Bosnia and Herzegovina",
		"PooledFundNameAbbrv": "Bosnia and Herzegovina",
		"RegionName": "Southern Europe",
		"SubRegionName": "Southern Europe",
		"ContinentName": "Europe",
		"CountryCode": "BIH",
		"ISO2Code": "BA",
		"latitude": 43.915886,
		"longitude": 17.679076
	},{
		"id": 12,
		"PooledFundName": "Brazil",
		"PooledFundNameAbbrv": "Brazil",
		"RegionName": "Latin America and the Caribbean",
		"SubRegionName": "Central America",
		"ContinentName": "Americas",
		"CountryCode": "BRA",
		"ISO2Code": "BR",
		"latitude": -14.235004,
		"longitude": -51.92528
	},{
		"id": 13,
		"PooledFundName": "Burkina Faso",
		"PooledFundNameAbbrv": "Burkina Faso",
		"RegionName": "Western Africa",
		"SubRegionName": "Western Africa",
		"ContinentName": "Africa",
		"CountryCode": "BFA",
		"ISO2Code": "BF",
		"latitude": 12.238333,
		"longitude": -1.561593
	},{
		"id": 14,
		"PooledFundName": "Burundi",
		"PooledFundNameAbbrv": "Burundi",
		"RegionName": "Eastern Africa",
		"SubRegionName": "Eastern Africa",
		"ContinentName": "Africa",
		"CountryCode": "BDI",
		"ISO2Code": "BI",
		"latitude": -3.373056,
		"longitude": 29.918886
	},{
		"id": 15,
		"PooledFundName": "Cambodia",
		"PooledFundNameAbbrv": "Cambodia",
		"RegionName": "South-Eastern Asia",
		"SubRegionName": "South-Eastern Asia",
		"ContinentName": "Asia",
		"CountryCode": "KHM",
		"ISO2Code": "KH",
		"latitude": 12.565679,
		"longitude": 104.990963
	},{
		"id": 16,
		"PooledFundName": "Cameroon",
		"PooledFundNameAbbrv": "Cameroon",
		"RegionName": "Middle Africa",
		"SubRegionName": "Middle Africa",
		"ContinentName": "Africa",
		"CountryCode": "CMR",
		"ISO2Code": "CM",
		"latitude": 7.369722,
		"longitude": 12.354722
	},{
		"id": 17,
		"PooledFundName": "Cape Verde",
		"PooledFundNameAbbrv": "Cape Verde",
		"RegionName": "Western Africa",
		"SubRegionName": "Western Africa",
		"ContinentName": "Africa",
		"CountryCode": "CPV",
		"ISO2Code": "CV",
		"latitude": 16.002082,
		"longitude": -24.013197
	},{
		"id": 18,
		"PooledFundName": "Central African Republic",
		"PooledFundNameAbbrv": "CAR",
		"RegionName": "Middle Africa",
		"SubRegionName": "Middle Africa",
		"ContinentName": "Africa",
		"CountryCode": "CAF",
		"ISO2Code": "CF",
		"latitude": 6.611111,
		"longitude": 20.939444
	},{
		"id": 19,
		"PooledFundName": "Chad",
		"PooledFundNameAbbrv": "Chad",
		"RegionName": "Middle Africa",
		"SubRegionName": "Middle Africa",
		"ContinentName": "Africa",
		"CountryCode": "TCD",
		"ISO2Code": "TD",
		"latitude": 15.454166,
		"longitude": 18.732207
	},{
		"id": 20,
		"PooledFundName": "Chile",
		"PooledFundNameAbbrv": "Chile",
		"RegionName": "Latin America and the Caribbean",
		"SubRegionName": "South America",
		"ContinentName": "Americas",
		"CountryCode": "CHL",
		"ISO2Code": "CL",
		"latitude": -35.675147,
		"longitude": -71.542969
	},{
		"id": 21,
		"PooledFundName": "China",
		"PooledFundNameAbbrv": "China",
		"RegionName": "Eastern Asia",
		"SubRegionName": "Eastern Asia",
		"ContinentName": "Asia",
		"CountryCode": "CHN",
		"ISO2Code": "CN",
		"latitude": 35.86166,
		"longitude": 104.195397
	},{
		"id": 22,
		"PooledFundName": "Colombia",
		"PooledFundNameAbbrv": "Colombia",
		"RegionName": "Latin America and the Caribbean",
		"SubRegionName": "South America",
		"ContinentName": "Americas",
		"CountryCode": "COL",
		"ISO2Code": "CO",
		"latitude": 4.570868,
		"longitude": -74.297333
	},{
		"id": 23,
		"PooledFundName": "Comoros",
		"PooledFundNameAbbrv": "Comoros",
		"RegionName": "Eastern Africa",
		"SubRegionName": "Eastern Africa",
		"ContinentName": "Africa",
		"CountryCode": "COM",
		"ISO2Code": "KM",
		"latitude": -11.875001,
		"longitude": 43.872219
	},{
		"id": 24,
		"PooledFundName": "Cote d'Ivoire",
		"PooledFundNameAbbrv": "Cote d'Ivoire",
		"RegionName": "Western Africa",
		"SubRegionName": "Western Africa",
		"ContinentName": "Africa",
		"CountryCode": "CIV",
		"ISO2Code": "CI",
		"latitude": 7.539989,
		"longitude": -5.54708
	},{
		"id": 25,
		"PooledFundName": "Cuba",
		"PooledFundNameAbbrv": "Cuba",
		"RegionName": "Latin America and the Caribbean",
		"SubRegionName": "Caribbean",
		"ContinentName": "Americas",
		"CountryCode": "CUB",
		"ISO2Code": "CU",
		"latitude": 21.521757,
		"longitude": -77.781167
	},{
		"id": 26,
		"PooledFundName": "Democratic People's Republic of Korea",
		"PooledFundNameAbbrv": "DPRK",
		"RegionName": "Eastern Asia",
		"SubRegionName": "Eastern Asia",
		"ContinentName": "Asia",
		"CountryCode": "PRK",
		"ISO2Code": "KP",
		"latitude": 40.339852,
		"longitude": 127.510093
	},{
		"id": 27,
		"PooledFundName": "Democratic Republic of the Congo",
		"PooledFundNameAbbrv": "DRC",
		"RegionName": "Middle Africa",
		"SubRegionName": "Middle Africa",
		"ContinentName": "Africa",
		"CountryCode": "COD",
		"ISO2Code": "CD",
		"latitude": -4.038333,
		"longitude": 21.758664
	},{
		"id": 28,
		"PooledFundName": "Djibouti",
		"PooledFundNameAbbrv": "Djibouti",
		"RegionName": "Eastern Africa",
		"SubRegionName": "Eastern Africa",
		"ContinentName": "Africa",
		"CountryCode": "DJI",
		"ISO2Code": "DJ",
		"latitude": 11.825138,
		"longitude": 42.590275
	},{
		"id": 29,
		"PooledFundName": "Dominica",
		"PooledFundNameAbbrv": "Dominica",
		"RegionName": "Latin America and the Caribbean",
		"SubRegionName": "Caribbean",
		"ContinentName": "Americas",
		"CountryCode": "DMA",
		"ISO2Code": "DM",
		"latitude": 15.414999,
		"longitude": -61.370976
	},{
		"id": 30,
		"PooledFundName": "Dominican Republic",
		"PooledFundNameAbbrv": "Dominican Republic",
		"RegionName": "Latin America and the Caribbean",
		"SubRegionName": "Caribbean",
		"ContinentName": "Americas",
		"CountryCode": "DOM",
		"ISO2Code": "DO",
		"latitude": 18.735693,
		"longitude": -70.162651
	},{
		"id": 31,
		"PooledFundName": "Eastern Africa",
		"PooledFundNameAbbrv": "Eastern Africa",
		"RegionName": "Eastern Africa",
		"SubRegionName": "Eastern Africa",
		"ContinentName": "Africa",
		"CountryCode": "EAF",
		"ISO2Code": "0E",
		"latitude": "#N/A",
		"longitude": "#N/A"
	},{
		"id": 32,
		"PooledFundName": "Ecuador",
		"PooledFundNameAbbrv": "Ecuador",
		"RegionName": "Latin America and the Caribbean",
		"SubRegionName": "Central America",
		"ContinentName": "Americas",
		"CountryCode": "ECU",
		"ISO2Code": "EC",
		"latitude": -1.831239,
		"longitude": -78.183406
	},{
		"id": 33,
		"PooledFundName": "Egypt",
		"PooledFundNameAbbrv": "Egypt",
		"RegionName": "Northern africa",
		"SubRegionName": "Northern africa",
		"ContinentName": "Africa",
		"CountryCode": "EGY",
		"ISO2Code": "EG",
		"latitude": 26.820553,
		"longitude": 30.802498
	},{
		"id": 34,
		"PooledFundName": "El Salvador",
		"PooledFundNameAbbrv": "El Salvador",
		"RegionName": "Latin America and the Caribbean",
		"SubRegionName": "Central America",
		"ContinentName": "Americas",
		"CountryCode": "SLV",
		"ISO2Code": "SV",
		"latitude": 13.794185,
		"longitude": -88.89653
	},{
		"id": 35,
		"PooledFundName": "Eritrea",
		"PooledFundNameAbbrv": "Eritrea",
		"RegionName": "Eastern Africa",
		"SubRegionName": "Eastern Africa",
		"ContinentName": "Africa",
		"CountryCode": "ERI",
		"ISO2Code": "ER",
		"latitude": 15.179384,
		"longitude": 39.782334
	},{
		"id": 36,
		"PooledFundName": "Ethiopia",
		"PooledFundNameAbbrv": "Ethiopia",
		"RegionName": "Eastern Africa",
		"SubRegionName": "Eastern Africa",
		"ContinentName": "Africa",
		"CountryCode": "ETH",
		"ISO2Code": "ET",
		"latitude": 9.145,
		"longitude": 40.489673
	},{
		"id": 37,
		"PooledFundName": "Fiji",
		"PooledFundNameAbbrv": "Fiji",
		"RegionName": "Melanesia",
		"SubRegionName": "Melanesia",
		"ContinentName": "Oceania",
		"CountryCode": "FJI",
		"ISO2Code": "FJ",
		"latitude": -16.578193,
		"longitude": 179.414413
	},{
		"id": 38,
		"PooledFundName": "Gambia",
		"PooledFundNameAbbrv": "Gambia",
		"RegionName": "Western Africa",
		"SubRegionName": "Western Africa",
		"ContinentName": "Africa",
		"CountryCode": "GMB",
		"ISO2Code": "GM",
		"latitude": 13.443182,
		"longitude": -15.310139
	},{
		"id": 39,
		"PooledFundName": "Georgia",
		"PooledFundNameAbbrv": "Georgia",
		"RegionName": "Western Asia",
		"SubRegionName": "Western Asia",
		"ContinentName": "Asia",
		"CountryCode": "GEO",
		"ISO2Code": "GE",
		"latitude": 42.315407,
		"longitude": 43.356892
	},{
		"id": 40,
		"PooledFundName": "Ghana",
		"PooledFundNameAbbrv": "Ghana",
		"RegionName": "Western Africa",
		"SubRegionName": "Western Africa",
		"ContinentName": "Africa",
		"CountryCode": "GHA",
		"ISO2Code": "GH",
		"latitude": 7.946527,
		"longitude": -1.023194
	},{
		"id": 41,
		"PooledFundName": "Global",
		"PooledFundNameAbbrv": "Global",
		"RegionName": "Global",
		"SubRegionName": "Global",
		"ContinentName": "Global",
		"CountryCode": "GLB",
		"ISO2Code": "0G",
		"latitude": "#N/A",
		"longitude": "#N/A"
	},{
		"id": 42,
		"PooledFundName": "Guatemala",
		"PooledFundNameAbbrv": "Guatemala",
		"RegionName": "Latin America and the Caribbean",
		"SubRegionName": "Central America",
		"ContinentName": "Americas",
		"CountryCode": "GTM",
		"ISO2Code": "GT",
		"latitude": 15.783471,
		"longitude": -90.230759
	},{
		"id": 43,
		"PooledFundName": "Guinea",
		"PooledFundNameAbbrv": "Guinea",
		"RegionName": "Western Africa",
		"SubRegionName": "Western Africa",
		"ContinentName": "Africa",
		"CountryCode": "GIN",
		"ISO2Code": "GN",
		"latitude": 9.945587,
		"longitude": -9.696645
	},{
		"id": 44,
		"PooledFundName": "Guinea-Bissau",
		"PooledFundNameAbbrv": "Guinea-Bissau",
		"RegionName": "Western Africa",
		"SubRegionName": "Western Africa",
		"ContinentName": "Africa",
		"CountryCode": "GNB",
		"ISO2Code": "GW",
		"latitude": 11.803749,
		"longitude": -15.180413
	},{
		"id": 45,
		"PooledFundName": "Haiti",
		"PooledFundNameAbbrv": "Haiti",
		"RegionName": "Latin America and the Caribbean",
		"SubRegionName": "Caribbean",
		"ContinentName": "Americas",
		"CountryCode": "HTI",
		"ISO2Code": "HT",
		"latitude": 18.971187,
		"longitude": -72.285215
	},{
		"id": 46,
		"PooledFundName": "Honduras",
		"PooledFundNameAbbrv": "Honduras",
		"RegionName": "Latin America and the Caribbean",
		"SubRegionName": "Central America",
		"ContinentName": "Americas",
		"CountryCode": "HND",
		"ISO2Code": "HN",
		"latitude": 15.199999,
		"longitude": -86.241905
	},{
		"id": 47,
		"PooledFundName": "India",
		"PooledFundNameAbbrv": "India",
		"RegionName": "Southern Asia",
		"SubRegionName": "Southern Asia",
		"ContinentName": "Asia",
		"CountryCode": "IND",
		"ISO2Code": "IN",
		"latitude": 20.593684,
		"longitude": 78.96288
	},{
		"id": 48,
		"PooledFundName": "Indonesia",
		"PooledFundNameAbbrv": "Indonesia",
		"RegionName": "South-Eastern Asia",
		"SubRegionName": "South-Eastern Asia",
		"ContinentName": "Asia",
		"CountryCode": "IDN",
		"ISO2Code": "ID",
		"latitude": -0.789275,
		"longitude": 113.921327
	},{
		"id": 49,
		"PooledFundName": "Iraq",
		"PooledFundNameAbbrv": "Iraq",
		"RegionName": "Western Asia",
		"SubRegionName": "Western Asia",
		"ContinentName": "Asia",
		"CountryCode": "IRQ",
		"ISO2Code": "IQ",
		"latitude": 33.223191,
		"longitude": 43.679291
	},{
		"id": 50,
		"PooledFundName": "Islamic Republic of Iran",
		"PooledFundNameAbbrv": "Iran",
		"RegionName": "Southern Asia",
		"SubRegionName": "Southern Asia",
		"ContinentName": "Asia",
		"CountryCode": "IRN",
		"ISO2Code": "IR",
		"latitude": 32.427908,
		"longitude": 53.688046
	},{
		"id": 51,
		"PooledFundName": "Jordan",
		"PooledFundNameAbbrv": "Jordan",
		"RegionName": "Western Asia",
		"SubRegionName": "Western Asia",
		"ContinentName": "Asia",
		"CountryCode": "JOR",
		"ISO2Code": "JO",
		"latitude": 30.585164,
		"longitude": 36.238414
	},{
		"id": 52,
		"PooledFundName": "Kenya",
		"PooledFundNameAbbrv": "Kenya",
		"RegionName": "Eastern Africa",
		"SubRegionName": "Eastern Africa",
		"ContinentName": "Africa",
		"CountryCode": "KEN",
		"ISO2Code": "KE",
		"latitude": -0.023559,
		"longitude": 37.906193
	},{
		"id": 53,
		"PooledFundName": "Kyrgyzstan",
		"PooledFundNameAbbrv": "Kyrgyzstan",
		"RegionName": "Central Asia",
		"SubRegionName": "Central Asia",
		"ContinentName": "Asia",
		"CountryCode": "KGZ",
		"ISO2Code": "KG",
		"latitude": 41.20438,
		"longitude": 74.766098
	},{
		"id": 54,
		"PooledFundName": "Lao People's Democratic Republic",
		"PooledFundNameAbbrv": "Laos",
		"RegionName": "South-Eastern Asia",
		"SubRegionName": "South-Eastern Asia",
		"ContinentName": "Asia",
		"CountryCode": "LAO",
		"ISO2Code": "LA",
		"latitude": 19.85627,
		"longitude": 102.495496
	},{
		"id": 55,
		"PooledFundName": "Lebanon",
		"PooledFundNameAbbrv": "Lebanon",
		"RegionName": "Western Asia",
		"SubRegionName": "Western Asia",
		"ContinentName": "Asia",
		"CountryCode": "LBN",
		"ISO2Code": "LB",
		"latitude": 33.854721,
		"longitude": 35.862285
	},{
		"id": 56,
		"PooledFundName": "Lesotho",
		"PooledFundNameAbbrv": "Lesotho",
		"RegionName": "Southern Africa",
		"SubRegionName": "Southern Africa",
		"ContinentName": "Africa",
		"CountryCode": "LSO",
		"ISO2Code": "LS",
		"latitude": -29.609988,
		"longitude": 28.233608
	},{
		"id": 57,
		"PooledFundName": "Liberia",
		"PooledFundNameAbbrv": "Liberia",
		"RegionName": "Western Africa",
		"SubRegionName": "Western Africa",
		"ContinentName": "Africa",
		"CountryCode": "LBR",
		"ISO2Code": "LR",
		"latitude": 6.428055,
		"longitude": -9.429499
	},{
		"id": 58,
		"PooledFundName": "Libya",
		"PooledFundNameAbbrv": "Libya",
		"RegionName": "Northern africa",
		"SubRegionName": "Northern africa",
		"ContinentName": "Africa",
		"CountryCode": "LBY",
		"ISO2Code": "LY",
		"latitude": 26.3351,
		"longitude": 17.228331
	},{
		"id": 59,
		"PooledFundName": "Madagascar",
		"PooledFundNameAbbrv": "Madagascar",
		"RegionName": "Eastern Africa",
		"SubRegionName": "Eastern Africa",
		"ContinentName": "Africa",
		"CountryCode": "MDG",
		"ISO2Code": "MG",
		"latitude": -18.766947,
		"longitude": 46.869107
	},{
		"id": 60,
		"PooledFundName": "Malawi",
		"PooledFundNameAbbrv": "Malawi",
		"RegionName": "Eastern Africa",
		"SubRegionName": "Eastern Africa",
		"ContinentName": "Africa",
		"CountryCode": "MWI",
		"ISO2Code": "MW",
		"latitude": -13.254308,
		"longitude": 34.301525
	},{
		"id": 61,
		"PooledFundName": "Mali",
		"PooledFundNameAbbrv": "Mali",
		"RegionName": "Western Africa",
		"SubRegionName": "Western Africa",
		"ContinentName": "Africa",
		"CountryCode": "MLI",
		"ISO2Code": "ML",
		"latitude": 17.570692,
		"longitude": -3.996166
	},{
		"id": 62,
		"PooledFundName": "Marshall Islands",
		"PooledFundNameAbbrv": "Marshall Islands",
		"RegionName": "Micronesia",
		"SubRegionName": "Micronesia",
		"ContinentName": "Oceania",
		"CountryCode": "MHL",
		"ISO2Code": "MH",
		"latitude": 7.131474,
		"longitude": 171.184478
	},{
		"id": 63,
		"PooledFundName": "Mauritania",
		"PooledFundNameAbbrv": "Mauritania",
		"RegionName": "Western Africa",
		"SubRegionName": "Western Africa",
		"ContinentName": "Africa",
		"CountryCode": "MRT",
		"ISO2Code": "MR",
		"latitude": 21.00789,
		"longitude": -10.940835
	},{
		"id": 64,
		"PooledFundName": "Mexico",
		"PooledFundNameAbbrv": "Mexico",
		"RegionName": "Latin America and the Caribbean",
		"SubRegionName": "Central America",
		"ContinentName": "Americas",
		"CountryCode": "MEX",
		"ISO2Code": "MX",
		"latitude": 23.634501,
		"longitude": -102.552784
	},{
		"id": 65,
		"PooledFundName": "Mongolia",
		"PooledFundNameAbbrv": "Mongolia",
		"RegionName": "Eastern Asia",
		"SubRegionName": "Eastern Asia",
		"ContinentName": "Asia",
		"CountryCode": "MNG",
		"ISO2Code": "MN",
		"latitude": 46.862496,
		"longitude": 103.846656
	},{
		"id": 66,
		"PooledFundName": "Mozambique",
		"PooledFundNameAbbrv": "Mozambique",
		"RegionName": "Eastern Africa",
		"SubRegionName": "Eastern Africa",
		"ContinentName": "Africa",
		"CountryCode": "MOZ",
		"ISO2Code": "MZ",
		"latitude": -18.665695,
		"longitude": 35.529562
	},{
		"id": 67,
		"PooledFundName": "Myanmar",
		"PooledFundNameAbbrv": "Myanmar",
		"RegionName": "South-Eastern Asia",
		"SubRegionName": "South-Eastern Asia",
		"ContinentName": "Asia",
		"CountryCode": "MMR",
		"ISO2Code": "MM",
		"latitude": 21.913965,
		"longitude": 95.956223
	},{
		"id": 68,
		"PooledFundName": "Namibia",
		"PooledFundNameAbbrv": "Namibia",
		"RegionName": "Southern Africa",
		"SubRegionName": "Southern Africa",
		"ContinentName": "Africa",
		"CountryCode": "NAM",
		"ISO2Code": "NA",
		"latitude": -22.95764,
		"longitude": 18.49041
	},{
		"id": 69,
		"PooledFundName": "Nepal",
		"PooledFundNameAbbrv": "Nepal",
		"RegionName": "Southern Asia",
		"SubRegionName": "Southern Asia",
		"ContinentName": "Asia",
		"CountryCode": "NPL",
		"ISO2Code": "NP",
		"latitude": 28.394857,
		"longitude": 84.124008
	},{
		"id": 70,
		"PooledFundName": "Nicaragua",
		"PooledFundNameAbbrv": "Nicaragua",
		"RegionName": "Latin America and the Caribbean",
		"SubRegionName": "Central America",
		"ContinentName": "Americas",
		"CountryCode": "NIC",
		"ISO2Code": "NI",
		"latitude": 12.865416,
		"longitude": -85.207229
	},{
		"id": 71,
		"PooledFundName": "Niger",
		"PooledFundNameAbbrv": "Niger",
		"RegionName": "Western Africa",
		"SubRegionName": "Western Africa",
		"ContinentName": "Africa",
		"CountryCode": "NER",
		"ISO2Code": "NE",
		"latitude": 17.607789,
		"longitude": 8.081666
	},{
		"id": 72,
		"PooledFundName": "Nigeria",
		"PooledFundNameAbbrv": "Nigeria",
		"RegionName": "Western Africa",
		"SubRegionName": "Western Africa",
		"ContinentName": "Africa",
		"CountryCode": "NGA",
		"ISO2Code": "NG",
		"latitude": 9.081999,
		"longitude": 8.675277
	},{
		"id": 73,
		"PooledFundName": "occupied Palestinian territory",
		"PooledFundNameAbbrv": "oPt",
		"RegionName": "Western Asia",
		"SubRegionName": "Western Asia",
		"ContinentName": "Asia",
		"CountryCode": "PSE",
		"ISO2Code": "PS",
		"latitude": 31.952162,
		"longitude": 35.233154
	},{
		"id": 74,
		"PooledFundName": "Pakistan",
		"PooledFundNameAbbrv": "Pakistan",
		"RegionName": "Southern Asia",
		"SubRegionName": "Southern Asia",
		"ContinentName": "Asia",
		"CountryCode": "PAK",
		"ISO2Code": "PK",
		"latitude": 30.375321,
		"longitude": 69.345116
	},{
		"id": 75,
		"PooledFundName": "Papua New Guinea",
		"PooledFundNameAbbrv": "Papua New Guinea",
		"RegionName": "Melanesia",
		"SubRegionName": "Melanesia",
		"ContinentName": "Oceania",
		"CountryCode": "PNG",
		"ISO2Code": "PG",
		"latitude": -6.314993,
		"longitude": 143.95555
	},{
		"id": 76,
		"PooledFundName": "Paraguay",
		"PooledFundNameAbbrv": "Paraguay",
		"RegionName": "Latin America and the Caribbean",
		"SubRegionName": "Central America",
		"ContinentName": "Americas",
		"CountryCode": "PRY",
		"ISO2Code": "PY",
		"latitude": -23.442503,
		"longitude": -58.443832
	},{
		"id": 77,
		"PooledFundName": "Peru",
		"PooledFundNameAbbrv": "Peru",
		"RegionName": "Latin America and the Caribbean",
		"SubRegionName": "South America",
		"ContinentName": "Americas",
		"CountryCode": "PER",
		"ISO2Code": "PE",
		"latitude": -9.189967,
		"longitude": -75.015152
	},{
		"id": 78,
		"PooledFundName": "Philippines",
		"PooledFundNameAbbrv": "Philippines",
		"RegionName": "South-Eastern Asia",
		"SubRegionName": "South-Eastern Asia",
		"ContinentName": "Asia",
		"CountryCode": "PHL",
		"ISO2Code": "PH",
		"latitude": 12.879721,
		"longitude": 121.774017
	},{
		"id": 79,
		"PooledFundName": "Republic of Congo",
		"PooledFundNameAbbrv": "Congo",
		"RegionName": "Middle Africa",
		"SubRegionName": "Middle Africa",
		"ContinentName": "Africa",
		"CountryCode": "COG",
		"ISO2Code": "CG",
		"latitude": -0.228021,
		"longitude": 15.827659
	},{
		"id": 80,
		"PooledFundName": "Republic of the Sudan",
		"PooledFundNameAbbrv": "Sudan",
		"RegionName": "Northern africa",
		"SubRegionName": "Northern africa",
		"ContinentName": "Africa",
		"CountryCode": "SDN",
		"ISO2Code": "SD",
		"latitude": 12.862807,
		"longitude": 30.217636
	},{
		"id": 81,
		"PooledFundName": "Rwanda",
		"PooledFundNameAbbrv": "Rwanda",
		"RegionName": "Eastern Africa",
		"SubRegionName": "Eastern Africa",
		"ContinentName": "Africa",
		"CountryCode": "RWA",
		"ISO2Code": "RW",
		"latitude": -1.940278,
		"longitude": 29.873888
	},{
		"id": 82,
		"PooledFundName": "Samoa",
		"PooledFundNameAbbrv": "Samoa",
		"RegionName": "Polynesia",
		"SubRegionName": "Polynesia",
		"ContinentName": "Oceania",
		"CountryCode": "WSM",
		"ISO2Code": "WS",
		"latitude": -13.759029,
		"longitude": -172.104629
	},{
		"id": 83,
		"PooledFundName": "Senegal",
		"PooledFundNameAbbrv": "Senegal",
		"RegionName": "Western Africa",
		"SubRegionName": "Western Africa",
		"ContinentName": "Africa",
		"CountryCode": "SEN",
		"ISO2Code": "SN",
		"latitude": 14.497401,
		"longitude": -14.452362
	},{
		"id": 84,
		"PooledFundName": "Serbia",
		"PooledFundNameAbbrv": "Serbia",
		"RegionName": "Southern Europe",
		"SubRegionName": "Southern Europe",
		"ContinentName": "Europe",
		"CountryCode": "SRB",
		"ISO2Code": "RS",
		"latitude": 44.016521,
		"longitude": 21.005859
	},{
		"id": 85,
		"PooledFundName": "Sierra Leone",
		"PooledFundNameAbbrv": "Sierra Leone",
		"RegionName": "Western Africa",
		"SubRegionName": "Western Africa",
		"ContinentName": "Africa",
		"CountryCode": "SLE",
		"ISO2Code": "SL",
		"latitude": 8.460555,
		"longitude": -11.779889
	},{
		"id": 86,
		"PooledFundName": "Solomon Islands",
		"PooledFundNameAbbrv": "Solomon Islands",
		"RegionName": "Melanesia",
		"SubRegionName": "Melanesia",
		"ContinentName": "Oceania",
		"CountryCode": "SLB",
		"ISO2Code": "SB",
		"latitude": -9.64571,
		"longitude": 160.156194
	},{
		"id": 87,
		"PooledFundName": "Somalia",
		"PooledFundNameAbbrv": "Somalia",
		"RegionName": "Eastern Africa",
		"SubRegionName": "Eastern Africa",
		"ContinentName": "Africa",
		"CountryCode": "SOM",
		"ISO2Code": "SO",
		"latitude": 5.152149,
		"longitude": 46.199616
	},{
		"id": 88,
		"PooledFundName": "South Sudan",
		"PooledFundNameAbbrv": "South Sudan",
		"RegionName": "Eastern Africa",
		"SubRegionName": "Eastern Africa",
		"ContinentName": "Africa",
		"CountryCode": "SSD",
		"ISO2Code": "SS",
		"latitude": 4.85165,
		"longitude": 31.58247
	},{
		"id": 89,
		"PooledFundName": "Sri Lanka",
		"PooledFundNameAbbrv": "Sri Lanka",
		"RegionName": "Southern Asia",
		"SubRegionName": "Southern Asia",
		"ContinentName": "Asia",
		"CountryCode": "LKA",
		"ISO2Code": "LK",
		"latitude": 7.873054,
		"longitude": 80.771797
	},{
		"id": 90,
		"PooledFundName": "Swaziland",
		"PooledFundNameAbbrv": "Swaziland",
		"RegionName": "Southern Africa",
		"SubRegionName": "Southern Africa",
		"ContinentName": "Africa",
		"CountryCode": "SWZ",
		"ISO2Code": "SZ",
		"latitude": -26.522503,
		"longitude": 31.465866
	},{
		"id": 91,
		"PooledFundName": "Syrian Arab Republic",
		"PooledFundNameAbbrv": "Syria",
		"RegionName": "Western Asia",
		"SubRegionName": "Western Asia",
		"ContinentName": "Asia",
		"CountryCode": "SYR",
		"ISO2Code": "SY",
		"latitude": 34.802075,
		"longitude": 38.996815
	},{
		"id": 92,
		"PooledFundName": "Tajikistan",
		"PooledFundNameAbbrv": "Tajikistan",
		"RegionName": "Central Asia",
		"SubRegionName": "Central Asia",
		"ContinentName": "Asia",
		"CountryCode": "TJK",
		"ISO2Code": "TJ",
		"latitude": 38.861034,
		"longitude": 71.276093
	},{
		"id": 93,
		"PooledFundName": "Timor-Leste",
		"PooledFundNameAbbrv": "Timor-Leste",
		"RegionName": "South-Eastern Asia",
		"SubRegionName": "South-Eastern Asia",
		"ContinentName": "Asia",
		"CountryCode": "TLS",
		"ISO2Code": "TL",
		"latitude": -8.874217,
		"longitude": 125.727539
	},{
		"id": 94,
		"PooledFundName": "Togo",
		"PooledFundNameAbbrv": "Togo",
		"RegionName": "Western Africa",
		"SubRegionName": "Western Africa",
		"ContinentName": "Africa",
		"CountryCode": "TGO",
		"ISO2Code": "TG",
		"latitude": 8.619543,
		"longitude": 0.824782
	},{
		"id": 95,
		"PooledFundName": "Tunisia",
		"PooledFundNameAbbrv": "Tunisia",
		"RegionName": "Northern africa",
		"SubRegionName": "Northern africa",
		"ContinentName": "Africa",
		"CountryCode": "TUN",
		"ISO2Code": "TN",
		"latitude": 33.886917,
		"longitude": 9.537499
	},{
		"id": 96,
		"PooledFundName": "Turkey",
		"PooledFundNameAbbrv": "Turkey",
		"RegionName": "Western Asia",
		"SubRegionName": "Western Asia",
		"ContinentName": "Asia",
		"CountryCode": "TUR",
		"ISO2Code": "TR",
		"latitude": 38.963745,
		"longitude": 35.243322
	},{
		"id": 97,
		"PooledFundName": "Uganda",
		"PooledFundNameAbbrv": "Uganda",
		"RegionName": "Eastern Africa",
		"SubRegionName": "Eastern Africa",
		"ContinentName": "Africa",
		"CountryCode": "UGA",
		"ISO2Code": "UG",
		"latitude": 1.373333,
		"longitude": 32.290275
	},{
		"id": 98,
		"PooledFundName": "Ukraine",
		"PooledFundNameAbbrv": "Ukraine",
		"RegionName": "Eastern Europe",
		"SubRegionName": "Eastern Europe",
		"ContinentName": "Europe",
		"CountryCode": "UKR",
		"ISO2Code": "UA",
		"latitude": 48.379433,
		"longitude": 31.16558
	},{
		"id": 99,
		"PooledFundName": "United Republic of Tanzania",
		"PooledFundNameAbbrv": "Tanzania",
		"RegionName": "Eastern Africa",
		"SubRegionName": "Eastern Africa",
		"ContinentName": "Africa",
		"CountryCode": "TZA",
		"ISO2Code": "TZ",
		"latitude": -6.369028,
		"longitude": 34.888822
	},{
		"id": 100,
		"PooledFundName": "Uzbekistan",
		"PooledFundNameAbbrv": "Uzbekistan",
		"RegionName": "Central Asia",
		"SubRegionName": "Central Asia",
		"ContinentName": "Asia",
		"CountryCode": "UZB",
		"ISO2Code": "UZ",
		"latitude": 41.377491,
		"longitude": 64.585262
	},{
		"id": 101,
		"PooledFundName": "Vanuatu",
		"PooledFundNameAbbrv": "Vanuatu",
		"RegionName": "Melanesia",
		"SubRegionName": "Melanesia",
		"ContinentName": "Oceania",
		"CountryCode": "VUT",
		"ISO2Code": "VU",
		"latitude": -15.376706,
		"longitude": 166.959158
	},{
		"id": 102,
		"PooledFundName": "Venezuela",
		"PooledFundNameAbbrv": "Venezuela",
		"RegionName": "Latin America and the Caribbean",
		"SubRegionName": "Central America",
		"ContinentName": "Americas",
		"CountryCode": "VEN",
		"ISO2Code": "VE",
		"latitude": 6.42375,
		"longitude": -66.58973
	},{
		"id": 103,
		"PooledFundName": "Venezuela Regional Refugee and Migration Crisis",
		"PooledFundNameAbbrv": "Venezuela Regional Refugee and Migration Crisis",
		"RegionName": "Latin America and the Caribbean",
		"SubRegionName": "South America",
		"ContinentName": "Americas",
		"CountryCode": "VZR",
		"ISO2Code": "0V",
		"latitude": "#N/A",
		"longitude": "#N/A"
	},{
		"id": 104,
		"PooledFundName": "Viet Nam",
		"PooledFundNameAbbrv": "Viet Nam",
		"RegionName": "South-Eastern Asia",
		"SubRegionName": "South-Eastern Asia",
		"ContinentName": "Asia",
		"CountryCode": "VNM",
		"ISO2Code": "VN",
		"latitude": 14.058324,
		"longitude": 108.277199
	},{
		"id": 105,
		"PooledFundName": "Yemen",
		"PooledFundNameAbbrv": "Yemen",
		"RegionName": "Western Asia",
		"SubRegionName": "Western Asia",
		"ContinentName": "Asia",
		"CountryCode": "YEM",
		"ISO2Code": "YE",
		"latitude": 15.552727,
		"longitude": 48.516388
	},{
		"id": 106,
		"PooledFundName": "Zambia",
		"PooledFundNameAbbrv": "Zambia",
		"RegionName": "Eastern Africa",
		"SubRegionName": "Eastern Africa",
		"ContinentName": "Africa",
		"CountryCode": "ZMB",
		"ISO2Code": "ZM",
		"latitude": -13.133897,
		"longitude": 27.849332
	},{
		"id": 107,
		"PooledFundName": "Zimbabwe",
		"PooledFundNameAbbrv": "Zimbabwe",
		"RegionName": "Eastern Africa",
		"SubRegionName": "Eastern Africa",
		"ContinentName": "Africa",
		"CountryCode": "ZWE",
		"ISO2Code": "ZW",
		"latitude": -19.015438,
		"longitude": 29.154857
	},{
		"id": 108,
		"PooledFundName": "Syria Cross border",
		"PooledFundNameAbbrv": "Syria Cross border",
		"RegionName": "Western Asia",
		"SubRegionName": "Western Asia",
		"ContinentName": "Asia",
		"CountryCode": "XX",
		"ISO2Code": "XX",
		"latitude": 37.065378,
		"longitude": 37.393274
	},{
		"id": 109,
		"PooledFundName": "CERF",
		"PooledFundNameAbbrv": "CERF",
		"RegionName": "CERF",
		"SubRegionName": "CERF",
		"ContinentName": "CERF",
		"CountryCode": "CERF",
		"ISO2Code": "CERF",
		"latitude": 40.71427,
		"longitude": -74.00597
	},{
		"id": 110,
		"PooledFundName": "Southern Africa",
		"PooledFundNameAbbrv": "Southern Africa",
		"RegionName": "Southern Africa",
		"SubRegionName": "Southern Africa",
		"ContinentName": "Africa",
		"CountryCode": "XX",
		"ISO2Code": "0SOA",
		"latitude": "#N/A",
		"longitude": "#N/A"
	}
]